{
"type": "FeatureCollection",
"crs": { "type": "name", "properties": { "name": "urn:ogc:def:crs:OGC:1.3:CRS84" } },
"features": [
{ "type": "Feature", "properties": { "id": "02-266", "country": "India", "iso3": "IND", "gwno": 750.0, "year": 2016, "geo_id": 31614, "geolocation": "Bhiwandi", "level": 3, "adm1": "Maharashtra", "adm2": "Thane", "adm3": "Bhiwandi", "location": "Bhiwandi", "historical": 0, "hist_country": null, "disastertype": "flood", "disasterno": "2016-0304", "latitude": 19.37046368, "longitude": 73.10086628000001 }, "geometry": { "type": "Point", "coordinates": [ 73.10086628, 19.37046368 ] } },
{ "type": "Feature", "properties": { "id": "03-249", "country": "India", "iso3": "IND", "gwno": 750.0, "year": 2011, "geo_id": 36038, "geolocation": "Sundarnagar", "level": 3, "adm1": "Himachal Pradesh", "adm2": "Mandi", "adm3": "Sundarnagar", "location": " Sundernagar city ", "historical": 0, "hist_country": null, "disastertype": "extreme temperature ", "disasterno": "2011-0007", "latitude": 31.44114817, "longitude": 76.91980693 }, "geometry": { "type": "Point", "coordinates": [ 76.91980693, 31.44114817 ] } },
{ "type": "Feature", "properties": { "id": "2648", "country": "India", "iso3": "IND", "gwno": 750.0, "year": 1968, "geo_id": 8695, "geolocation": "Ramanathapuram", "level": 2, "adm1": "Tamil Nadu", "adm2": "Ramanathapuram", "adm3": null, "location": "Ramanathapurum", "historical": 0, "hist_country": null, "disastertype": "storm", "disasterno": "1968-0084", "latitude": 9.439387677, "longitude": 78.68104303 }, "geometry": { "type": "Point", "coordinates": [ 78.68104303, 9.439387677 ] } },
{ "type": "Feature", "properties": { "id": "2648", "country": "India", "iso3": "IND", "gwno": 750.0, "year": 1968, "geo_id": 8815, "geolocation": "Thanjavur", "level": 2, "adm1": "Tamil Nadu", "adm2": "Thanjavur", "adm3": null, "location": "Thanjavur", "historical": 0, "hist_country": null, "disastertype": "storm", "disasterno": "1968-0084", "latitude": 10.65639586, "longitude": 79.22342874 }, "geometry": { "type": "Point", "coordinates": [ 79.22342874, 10.65639586 ] } },
{ "type": "Feature", "properties": { "id": "2649", "country": "India", "iso3": "IND", "gwno": 750.0, "year": 1969, "geo_id": 8119, "geolocation": "Guntur", "level": 2, "adm1": "Andhra Pradesh", "adm2": "Guntur", "adm3": null, "location": "Guntur", "historical": 0, "hist_country": null, "disastertype": "storm", "disasterno": "1969-0071", "latitude": 16.29023485, "longitude": 80.08194333 }, "geometry": { "type": "Point", "coordinates": [ 80.08194333, 16.29023485 ] } },
{ "type": "Feature", "properties": { "id": "2649", "country": "India", "iso3": "IND", "gwno": 750.0, "year": 1969, "geo_id": 8376, "geolocation": "Krishna", "level": 2, "adm1": "Andhra Pradesh", "adm2": "Krishna", "adm3": null, "location": "Krishna", "historical": 0, "hist_country": null, "disastertype": "storm", "disasterno": "1969-0071", "latitude": 16.55006848, "longitude": 80.79256277 }, "geometry": { "type": "Point", "coordinates": [ 80.79256277, 16.55006848 ] } },
{ "type": "Feature", "properties": { "id": "2659", "country": "India", "iso3": "IND", "gwno": 750.0, "year": 1972, "geo_id": 8761, "geolocation": "Srinagar", "level": 2, "adm1": "Jammu And Kashmir", "adm2": "Srinagar", "adm3": null, "location": "Srinagar", "historical": 0, "hist_country": null, "disastertype": "storm", "disasterno": "1972-0058", "latitude": 34.12797077, "longitude": 74.90084917 }, "geometry": { "type": "Point", "coordinates": [ 74.90084917, 34.12797077 ] } },
{ "type": "Feature", "properties": { "id": "2662", "country": "India", "iso3": "IND", "gwno": 750.0, "year": 1974, "geo_id": 8018, "geolocation": "Dhemaji", "level": 2, "adm1": "Assam", "adm2": "Dhemaji", "adm3": null, "location": "Dhemaji", "historical": 0, "hist_country": null, "disastertype": "flood", "disasterno": "1974-0129", "latitude": 27.58774856, "longitude": 94.77483408000001 }, "geometry": { "type": "Point", "coordinates": [ 94.77483408, 27.58774856 ] } },
{ "type": "Feature", "properties": { "id": "2662", "country": "India", "iso3": "IND", "gwno": 750.0, "year": 1974, "geo_id": 8028, "geolocation": "Dhubri", "level": 2, "adm1": "Assam", "adm2": "Dhubri", "adm3": null, "location": "Dhubri", "historical": 0, "hist_country": null, "disastertype": "flood", "disasterno": "1974-0129", "latitude": 26.10069773, "longitude": 90.02798848 }, "geometry": { "type": "Point", "coordinates": [ 90.02798848, 26.10069773 ] } },
{ "type": "Feature", "properties": { "id": "2662", "country": "India", "iso3": "IND", "gwno": 750.0, "year": 1974, "geo_id": 8239, "geolocation": "Jorhat", "level": 2, "adm1": "Assam", "adm2": "Jorhat", "adm3": null, "location": "Jorhat", "historical": 0, "hist_country": null, "disastertype": "flood", "disasterno": "1974-0129", "latitude": 26.79628642, "longitude": 94.27389983 }, "geometry": { "type": "Point", "coordinates": [ 94.27389983, 26.79628642 ] } },
{ "type": "Feature", "properties": { "id": "2662", "country": "India", "iso3": "IND", "gwno": 750.0, "year": 1974, "geo_id": 8833, "geolocation": "Tinsukia", "level": 2, "adm1": "Assam", "adm2": "Tinsukia", "adm3": null, "location": "Tinsukia", "historical": 0, "hist_country": null, "disastertype": "flood", "disasterno": "1974-0129", "latitude": 27.58449365, "longitude": 95.62433404 }, "geometry": { "type": "Point", "coordinates": [ 95.62433404, 27.58449365 ] } },
{ "type": "Feature", "properties": { "id": "2684", "country": "India", "iso3": "IND", "gwno": 750.0, "year": 1980, "geo_id": 8757, "geolocation": "Srikakulam", "level": 2, "adm1": "Andhra Pradesh", "adm2": "Srikakulam", "adm3": null, "location": "Srikakulam", "historical": 0, "hist_country": null, "disastertype": "storm", "disasterno": "1980-0227", "latitude": 18.57018044, "longitude": 83.97909711 }, "geometry": { "type": "Point", "coordinates": [ 83.97909711, 18.57018044 ] } },
{ "type": "Feature", "properties": { "id": "2684", "country": "India", "iso3": "IND", "gwno": 750.0, "year": 1980, "geo_id": 8943, "geolocation": "Visakhapatnam", "level": 2, "adm1": "Andhra Pradesh", "adm2": "Visakhapatnam", "adm3": null, "location": "Visakhapatnam", "historical": 0, "hist_country": null, "disastertype": "storm", "disasterno": "1980-0227", "latitude": 17.88493739, "longitude": 82.68205636 }, "geometry": { "type": "Point", "coordinates": [ 82.68205636, 17.88493739 ] } },
{ "type": "Feature", "properties": { "id": "2684", "country": "India", "iso3": "IND", "gwno": 750.0, "year": 1980, "geo_id": 9004, "geolocation": "West Godavari", "level": 2, "adm1": "Andhra Pradesh", "adm2": "West Godavari", "adm3": null, "location": "East and West Godavari", "historical": 0, "hist_country": null, "disastertype": "storm", "disasterno": "1980-0227", "latitude": 16.88638554, "longitude": 81.39289921 }, "geometry": { "type": "Point", "coordinates": [ 81.39289921, 16.88638554 ] } },
{ "type": "Feature", "properties": { "id": "2689", "country": "India", "iso3": "IND", "gwno": 750.0, "year": 1981, "geo_id": 8056, "geolocation": "Ganjam", "level": 2, "adm1": "Odisha", "adm2": "Ganjam", "adm3": null, "location": "Ganjam", "historical": 0, "hist_country": null, "disastertype": "storm", "disasterno": "1981-0206", "latitude": 19.62190014, "longitude": 84.65996467 }, "geometry": { "type": "Point", "coordinates": [ 84.65996467, 19.62190014 ] } },
{ "type": "Feature", "properties": { "id": "2689", "country": "India", "iso3": "IND", "gwno": 750.0, "year": 1981, "geo_id": 8252, "geolocation": "Kalahandi", "level": 2, "adm1": "Odisha", "adm2": "Kalahandi", "adm3": null, "location": "Kalhandi", "historical": 0, "hist_country": null, "disastertype": "storm", "disasterno": "1981-0206", "latitude": 19.86281434, "longitude": 83.10201833000001 }, "geometry": { "type": "Point", "coordinates": [ 83.10201833, 19.86281434 ] } },
{ "type": "Feature", "properties": { "id": "2689", "country": "India", "iso3": "IND", "gwno": 750.0, "year": 1981, "geo_id": 8261, "geolocation": "Kandhamal", "level": 2, "adm1": "Odisha", "adm2": "Kandhamal", "adm3": null, "location": "Phulbani", "historical": 0, "hist_country": null, "disastertype": "storm", "disasterno": "1981-0206", "latitude": 20.12313957, "longitude": 84.03927776 }, "geometry": { "type": "Point", "coordinates": [ 84.03927776, 20.12313957 ] } },
{ "type": "Feature", "properties": { "id": "2689", "country": "India", "iso3": "IND", "gwno": 750.0, "year": 1981, "geo_id": 8370, "geolocation": "Koraput", "level": 2, "adm1": "Odisha", "adm2": "Koraput", "adm3": null, "location": "Koraput", "historical": 0, "hist_country": null, "disastertype": "storm", "disasterno": "1981-0206", "latitude": 18.8106927, "longitude": 82.70710115 }, "geometry": { "type": "Point", "coordinates": [ 82.70710115, 18.8106927 ] } },
{ "type": "Feature", "properties": { "id": "2689", "country": "India", "iso3": "IND", "gwno": 750.0, "year": 1981, "geo_id": 8764, "geolocation": "Sundargarh", "level": 2, "adm1": "Odisha", "adm2": "Sundargarh", "adm3": null, "location": "Sundergarh", "historical": 0, "hist_country": null, "disastertype": "storm", "disasterno": "1981-0206", "latitude": 22.07706596, "longitude": 84.50188835 }, "geometry": { "type": "Point", "coordinates": [ 84.50188835, 22.07706596 ] } },
{ "type": "Feature", "properties": { "id": "2700", "country": "India", "iso3": "IND", "gwno": 750.0, "year": 1984, "geo_id": 7983, "geolocation": "Cuttack", "level": 2, "adm1": "Odisha", "adm2": "Cuttack", "adm3": null, "location": "Cuttack", "historical": 0, "hist_country": null, "disastertype": "storm", "disasterno": "1984-0227", "latitude": 20.44239318, "longitude": 85.6982686 }, "geometry": { "type": "Point", "coordinates": [ 85.6982686, 20.44239318 ] } },
{ "type": "Feature", "properties": { "id": "2701", "country": "India", "iso3": "IND", "gwno": 750.0, "year": 1984, "geo_id": 7973, "geolocation": "Chittoor", "level": 2, "adm1": "Andhra Pradesh", "adm2": "Chittoor", "adm3": null, "location": "Chittoor", "historical": 0, "hist_country": null, "disastertype": "storm", "disasterno": "1984-0110", "latitude": 13.45687774, "longitude": 79.00283762 }, "geometry": { "type": "Point", "coordinates": [ 79.00283762, 13.45687774 ] } },
{ "type": "Feature", "properties": { "id": "2701", "country": "India", "iso3": "IND", "gwno": 750.0, "year": 1984, "geo_id": 8549, "geolocation": "Nellore", "level": 2, "adm1": "Andhra Pradesh", "adm2": "Nellore", "adm3": null, "location": "Nellore", "historical": 0, "hist_country": null, "disastertype": "storm", "disasterno": "1984-0110", "latitude": 14.43556427, "longitude": 79.72017697 }, "geometry": { "type": "Point", "coordinates": [ 79.72017697, 14.43556427 ] } },
{ "type": "Feature", "properties": { "id": "2711", "country": "India", "iso3": "IND", "gwno": 750.0, "year": 1986, "geo_id": 8361, "geolocation": "Kolkata", "level": 2, "adm1": "West Bengal", "adm2": "Kolkata", "adm3": null, "location": "Calcutta", "historical": 0, "hist_country": null, "disastertype": "storm", "disasterno": "1986-0116", "latitude": 22.55199571, "longitude": 88.35157415 }, "geometry": { "type": "Point", "coordinates": [ 88.35157415, 22.55199571 ] } },
{ "type": "Feature", "properties": { "id": "2718", "country": "India", "iso3": "IND", "gwno": 750.0, "year": 1987, "geo_id": 8120, "geolocation": "Guntur", "level": 2, "adm1": "Andhra Pradesh", "adm2": "Guntur", "adm3": null, "location": "Guntur", "historical": 0, "hist_country": null, "disastertype": "storm", "disasterno": "1987-0280", "latitude": 16.29023485, "longitude": 80.08194333 }, "geometry": { "type": "Point", "coordinates": [ 80.08194333, 16.29023485 ] } },
{ "type": "Feature", "properties": { "id": "2720", "country": "India", "iso3": "IND", "gwno": 750.0, "year": 1988, "geo_id": 7992, "geolocation": "Darbhanga", "level": 2, "adm1": "Bihar", "adm2": "Darbhanga", "adm3": null, "location": "Dharbhanga", "historical": 0, "hist_country": null, "disastertype": "earthquake", "disasterno": "1988-0382", "latitude": 26.11540047, "longitude": 86.01625194 }, "geometry": { "type": "Point", "coordinates": [ 86.01625194, 26.11540047 ] } },
{ "type": "Feature", "properties": { "id": "2720", "country": "India", "iso3": "IND", "gwno": 750.0, "year": 1988, "geo_id": 8414, "geolocation": "Madhubani", "level": 2, "adm1": "Bihar", "adm2": "Madhubani", "adm3": null, "location": "Madhubani", "historical": 0, "hist_country": null, "disastertype": "earthquake", "disasterno": "1988-0382", "latitude": 26.40674188, "longitude": 86.21186545 }, "geometry": { "type": "Point", "coordinates": [ 86.21186545, 26.40674188 ] } },
{ "type": "Feature", "properties": { "id": "2720", "country": "India", "iso3": "IND", "gwno": 750.0, "year": 1988, "geo_id": 8505, "geolocation": "Munger", "level": 2, "adm1": "Bihar", "adm2": "Munger", "adm3": null, "location": "Munger", "historical": 0, "hist_country": null, "disastertype": "earthquake", "disasterno": "1988-0382", "latitude": 25.20892285, "longitude": 86.5265508 }, "geometry": { "type": "Point", "coordinates": [ 86.5265508, 25.20892285 ] } },
{ "type": "Feature", "properties": { "id": "2720", "country": "India", "iso3": "IND", "gwno": 750.0, "year": 1988, "geo_id": 8712, "geolocation": "Saharsa", "level": 2, "adm1": "Bihar", "adm2": "Saharsa", "adm3": null, "location": "Saharsa", "historical": 0, "hist_country": null, "disastertype": "earthquake", "disasterno": "1988-0382", "latitude": 25.81718474, "longitude": 86.58260238 }, "geometry": { "type": "Point", "coordinates": [ 86.58260238, 25.81718474 ] } },
{ "type": "Feature", "properties": { "id": "2726", "country": "India", "iso3": "IND", "gwno": 750.0, "year": 1990, "geo_id": 8204, "geolocation": "Jammu", "level": 2, "adm1": "Jammu And Kashmir", "adm2": "Jammu", "adm3": null, "location": "Jammu", "historical": 0, "hist_country": null, "disastertype": "flood", "disasterno": "1990-0103", "latitude": 32.80071486, "longitude": 74.73195938000001 }, "geometry": { "type": "Point", "coordinates": [ 74.73195938, 32.80071486 ] } },
{ "type": "Feature", "properties": { "id": "2726", "country": "India", "iso3": "IND", "gwno": 750.0, "year": 1990, "geo_id": 8271, "geolocation": "Kargil", "level": 2, "adm1": "Jammu And Kashmir", "adm2": "Kargil", "adm3": null, "location": "Kargil district", "historical": 0, "hist_country": null, "disastertype": "flood", "disasterno": "1990-0103", "latitude": 33.88348814, "longitude": 76.47242882 }, "geometry": { "type": "Point", "coordinates": [ 76.47242882, 33.88348814 ] } },
{ "type": "Feature", "properties": { "id": "2728", "country": "India", "iso3": "IND", "gwno": 750.0, "year": 1990, "geo_id": 8121, "geolocation": "Guntur", "level": 2, "adm1": "Andhra Pradesh", "adm2": "Guntur", "adm3": null, "location": "Guntur", "historical": 0, "hist_country": null, "disastertype": "storm", "disasterno": "1990-0019", "latitude": 16.29023485, "longitude": 80.08194333 }, "geometry": { "type": "Point", "coordinates": [ 80.08194333, 16.29023485 ] } },
{ "type": "Feature", "properties": { "id": "2728", "country": "India", "iso3": "IND", "gwno": 750.0, "year": 1990, "geo_id": 8378, "geolocation": "Krishna", "level": 2, "adm1": "Andhra Pradesh", "adm2": "Krishna", "adm3": null, "location": "Krishna", "historical": 0, "hist_country": null, "disastertype": "storm", "disasterno": "1990-0019", "latitude": 16.55006848, "longitude": 80.79256277 }, "geometry": { "type": "Point", "coordinates": [ 80.79256277, 16.55006848 ] } },
{ "type": "Feature", "properties": { "id": "2728", "country": "India", "iso3": "IND", "gwno": 750.0, "year": 1990, "geo_id": 8944, "geolocation": "Visakhapatnam", "level": 2, "adm1": "Andhra Pradesh", "adm2": "Visakhapatnam", "adm3": null, "location": "Visakhapatnam", "historical": 0, "hist_country": null, "disastertype": "storm", "disasterno": "1990-0019", "latitude": 17.88493739, "longitude": 82.68205636 }, "geometry": { "type": "Point", "coordinates": [ 82.68205636, 17.88493739 ] } },
{ "type": "Feature", "properties": { "id": "2728", "country": "India", "iso3": "IND", "gwno": 750.0, "year": 1990, "geo_id": 9005, "geolocation": "West Godavari", "level": 2, "adm1": "Andhra Pradesh", "adm2": "West Godavari", "adm3": null, "location": "East and West Godavari", "historical": 0, "hist_country": null, "disastertype": "storm", "disasterno": "1990-0019", "latitude": 16.88638554, "longitude": 81.39289921 }, "geometry": { "type": "Point", "coordinates": [ 81.39289921, 16.88638554 ] } },
{ "type": "Feature", "properties": { "id": "2752", "country": "India", "iso3": "IND", "gwno": 750.0, "year": 1993, "geo_id": 8410, "geolocation": "Latur", "level": 2, "adm1": "Maharashtra", "adm2": "Latur", "adm3": null, "location": "Killari", "historical": 0, "hist_country": null, "disastertype": "earthquake", "disasterno": "1993-0074", "latitude": 18.37278299, "longitude": 76.75964617 }, "geometry": { "type": "Point", "coordinates": [ 76.75964617, 18.37278299 ] } },
{ "type": "Feature", "properties": { "id": "2752", "country": "India", "iso3": "IND", "gwno": 750.0, "year": 1993, "geo_id": 8607, "geolocation": "Osmanabad", "level": 2, "adm1": "Maharashtra", "adm2": "Osmanabad", "adm3": null, "location": "Osmanabad", "historical": 0, "hist_country": null, "disastertype": "earthquake", "disasterno": "1993-0074", "latitude": 18.18785859, "longitude": 76.03986326 }, "geometry": { "type": "Point", "coordinates": [ 76.03986326, 18.18785859 ] } },
{ "type": "Feature", "properties": { "id": "2755", "country": "India", "iso3": "IND", "gwno": 750.0, "year": 1993, "geo_id": 9021, "geolocation": "Yanam", "level": 2, "adm1": "Puducherry", "adm2": "Yanam", "adm3": null, "location": "Karaikal region", "historical": 0, "hist_country": null, "disastertype": "storm", "disasterno": "1993-0085", "latitude": 16.71861838, "longitude": 82.23416181 }, "geometry": { "type": "Point", "coordinates": [ 82.23416181, 16.71861838 ] } },
{ "type": "Feature", "properties": { "id": "2768", "country": "India", "iso3": "IND", "gwno": 750.0, "year": 1996, "geo_id": 7993, "geolocation": "Darbhanga", "level": 2, "adm1": "Bihar", "adm2": "Darbhanga", "adm3": null, "location": "Darbhanga", "historical": 0, "hist_country": null, "disastertype": "flood", "disasterno": "1996-0503", "latitude": 26.11540047, "longitude": 86.01625194 }, "geometry": { "type": "Point", "coordinates": [ 86.01625194, 26.11540047 ] } },
{ "type": "Feature", "properties": { "id": "2768", "country": "India", "iso3": "IND", "gwno": 750.0, "year": 1996, "geo_id": 8357, "geolocation": "Kishanganj", "level": 2, "adm1": "Bihar", "adm2": "Kishanganj", "adm3": null, "location": "Kishanganj", "historical": 0, "hist_country": null, "disastertype": "flood", "disasterno": "1996-0503", "latitude": 26.29672183, "longitude": 87.93027863 }, "geometry": { "type": "Point", "coordinates": [ 87.93027863, 26.29672183 ] } },
{ "type": "Feature", "properties": { "id": "2768", "country": "India", "iso3": "IND", "gwno": 750.0, "year": 1996, "geo_id": 8713, "geolocation": "Saharsa", "level": 2, "adm1": "Bihar", "adm2": "Saharsa", "adm3": null, "location": "Saharsa", "historical": 0, "hist_country": null, "disastertype": "flood", "disasterno": "1996-0503", "latitude": 25.81718474, "longitude": 86.58260238 }, "geometry": { "type": "Point", "coordinates": [ 86.58260238, 25.81718474 ] } },
{ "type": "Feature", "properties": { "id": "2768", "country": "India", "iso3": "IND", "gwno": 750.0, "year": 1996, "geo_id": 8738, "geolocation": "Sitamarhi", "level": 2, "adm1": "Bihar", "adm2": "Sitamarhi", "adm3": null, "location": "Sitamarhi", "historical": 0, "hist_country": null, "disastertype": "flood", "disasterno": "1996-0503", "latitude": 26.59651346, "longitude": 85.55755515 }, "geometry": { "type": "Point", "coordinates": [ 85.55755515, 26.59651346 ] } },
{ "type": "Feature", "properties": { "id": "2772", "country": "India", "iso3": "IND", "gwno": 750.0, "year": 1996, "geo_id": 8251, "geolocation": "Kakinada", "level": 3, "adm1": "Andhra Pradesh", "adm2": "East Godavari", "adm3": "Kakinada", "location": "Kakinada", "historical": 0, "hist_country": null, "disastertype": "storm", "disasterno": "1996-0256", "latitude": 16.8909419, "longitude": 82.19534428 }, "geometry": { "type": "Point", "coordinates": [ 82.19534428, 16.8909419 ] } },
{ "type": "Feature", "properties": { "id": "2772", "country": "India", "iso3": "IND", "gwno": 750.0, "year": 1996, "geo_id": 9006, "geolocation": "West Godavari", "level": 2, "adm1": "Andhra Pradesh", "adm2": "West Godavari", "adm3": null, "location": "East and West Godavari", "historical": 0, "hist_country": null, "disastertype": "storm", "disasterno": "1996-0256", "latitude": 16.88638554, "longitude": 81.39289921 }, "geometry": { "type": "Point", "coordinates": [ 81.39289921, 16.88638554 ] } },
{ "type": "Feature", "properties": { "id": "2775", "country": "India", "iso3": "IND", "gwno": 750.0, "year": 1997, "geo_id": 7672, "geolocation": "Ahmadabad", "level": 2, "adm1": "Gujarat", "adm2": "Ahmadabad", "adm3": null, "location": "Ahmedabad", "historical": 0, "hist_country": null, "disastertype": "flood", "disasterno": "1997-0337", "latitude": 22.72911928, "longitude": 72.20432773 }, "geometry": { "type": "Point", "coordinates": [ 72.20432773, 22.72911928 ] } },
{ "type": "Feature", "properties": { "id": "2775", "country": "India", "iso3": "IND", "gwno": 750.0, "year": 1997, "geo_id": 7842, "geolocation": "Banas Kantha", "level": 2, "adm1": "Gujarat", "adm2": "Banas Kantha", "adm3": null, "location": "Banaskanda", "historical": 0, "hist_country": null, "disastertype": "flood", "disasterno": "1997-0337", "latitude": 24.28099748, "longitude": 72.03809257 }, "geometry": { "type": "Point", "coordinates": [ 72.03809257, 24.28099748 ] } },
{ "type": "Feature", "properties": { "id": "2775", "country": "India", "iso3": "IND", "gwno": 750.0, "year": 1997, "geo_id": 8052, "geolocation": "Gandhinagar", "level": 2, "adm1": "Gujarat", "adm2": "Gandhinagar", "adm3": null, "location": "Gandhi Nagar", "historical": 0, "hist_country": null, "disastertype": "flood", "disasterno": "1997-0337", "latitude": 23.20990618, "longitude": 72.70209791000001 }, "geometry": { "type": "Point", "coordinates": [ 72.70209791, 23.20990618 ] } },
{ "type": "Feature", "properties": { "id": "2775", "country": "India", "iso3": "IND", "gwno": 750.0, "year": 1997, "geo_id": 8345, "geolocation": "Kheda", "level": 2, "adm1": "Gujarat", "adm2": "Kheda", "adm3": null, "location": "Kheda", "historical": 0, "hist_country": null, "disastertype": "flood", "disasterno": "1997-0337", "latitude": 22.8768383, "longitude": 73.02447162 }, "geometry": { "type": "Point", "coordinates": [ 73.02447162, 22.8768383 ] } },
{ "type": "Feature", "properties": { "id": "2775", "country": "India", "iso3": "IND", "gwno": 750.0, "year": 1997, "geo_id": 8474, "geolocation": "Mahesana", "level": 2, "adm1": "Gujarat", "adm2": "Mahesana", "adm3": null, "location": "Mehsana", "historical": 0, "hist_country": null, "disastertype": "flood", "disasterno": "1997-0337", "latitude": 23.57969264, "longitude": 72.49688414000001 }, "geometry": { "type": "Point", "coordinates": [ 72.49688414, 23.57969264 ] } },
{ "type": "Feature", "properties": { "id": "2775", "country": "India", "iso3": "IND", "gwno": 750.0, "year": 1997, "geo_id": 8707, "geolocation": "Sabar Kantha", "level": 2, "adm1": "Gujarat", "adm2": "Sabar Kantha", "adm3": null, "location": "Sabarkanda", "historical": 0, "hist_country": null, "disastertype": "flood", "disasterno": "1997-0337", "latitude": 23.80666439, "longitude": 73.03763379 }, "geometry": { "type": "Point", "coordinates": [ 73.03763379, 23.80666439 ] } },
{ "type": "Feature", "properties": { "id": "2775", "country": "India", "iso3": "IND", "gwno": 750.0, "year": 1997, "geo_id": 8772, "geolocation": "Surendranagar", "level": 2, "adm1": "Gujarat", "adm2": "Surendranagar", "adm3": null, "location": "Surender Nagar", "historical": 0, "hist_country": null, "disastertype": "flood", "disasterno": "1997-0337", "latitude": 22.76841671, "longitude": 71.60708794 }, "geometry": { "type": "Point", "coordinates": [ 71.60708794, 22.76841671 ] } },
{ "type": "Feature", "properties": { "id": "2775", "country": "India", "iso3": "IND", "gwno": 750.0, "year": 1997, "geo_id": 8930, "geolocation": "Vadodara", "level": 2, "adm1": "Gujarat", "adm2": "Vadodara", "adm3": null, "location": "Vadodra", "historical": 0, "hist_country": null, "disastertype": "flood", "disasterno": "1997-0337", "latitude": 22.24629292, "longitude": 73.24968977 }, "geometry": { "type": "Point", "coordinates": [ 73.24968977, 22.24629292 ] } },
{ "type": "Feature", "properties": { "id": "2778", "country": "India", "iso3": "IND", "gwno": 750.0, "year": 1997, "geo_id": 8122, "geolocation": "Guntur", "level": 2, "adm1": "Andhra Pradesh", "adm2": "Guntur", "adm3": null, "location": "Guntur", "historical": 0, "hist_country": null, "disastertype": "flood", "disasterno": "1997-0357", "latitude": 16.29023485, "longitude": 80.08194333 }, "geometry": { "type": "Point", "coordinates": [ 80.08194333, 16.29023485 ] } },
{ "type": "Feature", "properties": { "id": "2780", "country": "India", "iso3": "IND", "gwno": 750.0, "year": 1998, "geo_id": 7680, "geolocation": "Amreli", "level": 2, "adm1": "Gujarat", "adm2": "Amreli", "adm3": null, "location": "Amreli", "historical": 0, "hist_country": null, "disastertype": "storm", "disasterno": "1998-0183", "latitude": 21.42212608, "longitude": 71.26448769 }, "geometry": { "type": "Point", "coordinates": [ 71.26448769, 21.42212608 ] } },
{ "type": "Feature", "properties": { "id": "2780", "country": "India", "iso3": "IND", "gwno": 750.0, "year": 1998, "geo_id": 7843, "geolocation": "Banas Kantha", "level": 2, "adm1": "Gujarat", "adm2": "Banas Kantha", "adm3": null, "location": "Banaskhanta", "historical": 0, "hist_country": null, "disastertype": "storm", "disasterno": "1998-0183", "latitude": 24.28099748, "longitude": 72.03809257 }, "geometry": { "type": "Point", "coordinates": [ 72.03809257, 24.28099748 ] } },
{ "type": "Feature", "properties": { "id": "2780", "country": "India", "iso3": "IND", "gwno": 750.0, "year": 1998, "geo_id": 7862, "geolocation": "Barmer", "level": 2, "adm1": "Rajasthan", "adm2": "Barmer", "adm3": null, "location": "Barmer", "historical": 0, "hist_country": null, "disastertype": "storm", "disasterno": "1998-0183", "latitude": 25.73003991, "longitude": 71.47894365000001 }, "geometry": { "type": "Point", "coordinates": [ 71.47894365, 25.73003991 ] } },
{ "type": "Feature", "properties": { "id": "2780", "country": "India", "iso3": "IND", "gwno": 750.0, "year": 1998, "geo_id": 7882, "geolocation": "Bharuch", "level": 2, "adm1": "Gujarat", "adm2": "Bharuch", "adm3": null, "location": "Bharuch", "historical": 0, "hist_country": null, "disastertype": "storm", "disasterno": "1998-0183", "latitude": 21.78666651, "longitude": 72.92475605 }, "geometry": { "type": "Point", "coordinates": [ 72.92475605, 21.78666651 ] } },
{ "type": "Feature", "properties": { "id": "2780", "country": "India", "iso3": "IND", "gwno": 750.0, "year": 1998, "geo_id": 8201, "geolocation": "Jalor", "level": 2, "adm1": "Rajasthan", "adm2": "Jalor", "adm3": null, "location": "Jallore", "historical": 0, "hist_country": null, "disastertype": "storm", "disasterno": "1998-0183", "latitude": 25.0946658, "longitude": 72.21544589 }, "geometry": { "type": "Point", "coordinates": [ 72.21544589, 25.0946658 ] } },
{ "type": "Feature", "properties": { "id": "2780", "country": "India", "iso3": "IND", "gwno": 750.0, "year": 1998, "geo_id": 8228, "geolocation": "Jamnagar", "level": 2, "adm1": "Gujarat", "adm2": "Jamnagar", "adm3": null, "location": "Jamnagar", "historical": 0, "hist_country": null, "disastertype": "storm", "disasterno": "1998-0183", "latitude": 22.33618485, "longitude": 70.23238871 }, "geometry": { "type": "Point", "coordinates": [ 70.23238871, 22.33618485 ] } },
{ "type": "Feature", "properties": { "id": "2780", "country": "India", "iso3": "IND", "gwno": 750.0, "year": 1998, "geo_id": 8244, "geolocation": "Junagadh", "level": 2, "adm1": "Gujarat", "adm2": "Junagadh", "adm3": null, "location": "Junagadh", "historical": 0, "hist_country": null, "disastertype": "storm", "disasterno": "1998-0183", "latitude": 21.25423825, "longitude": 70.57263302 }, "geometry": { "type": "Point", "coordinates": [ 70.57263302, 21.25423825 ] } },
{ "type": "Feature", "properties": { "id": "2780", "country": "India", "iso3": "IND", "gwno": 750.0, "year": 1998, "geo_id": 8540, "geolocation": "Navsari", "level": 2, "adm1": "Gujarat", "adm2": "Navsari", "adm3": null, "location": "Nasvari", "historical": 0, "hist_country": null, "disastertype": "storm", "disasterno": "1998-0183", "latitude": 20.81218482, "longitude": 73.10551991 }, "geometry": { "type": "Point", "coordinates": [ 73.10551991, 20.81218482 ] } },
{ "type": "Feature", "properties": { "id": "2780", "country": "India", "iso3": "IND", "gwno": 750.0, "year": 1998, "geo_id": 8626, "geolocation": "Porbandar", "level": 2, "adm1": "Gujarat", "adm2": "Porbandar", "adm3": null, "location": "Porbandar", "historical": 0, "hist_country": null, "disastertype": "storm", "disasterno": "1998-0183", "latitude": 21.63737945, "longitude": 69.80371801 }, "geometry": { "type": "Point", "coordinates": [ 69.80371801, 21.63737945 ] } },
{ "type": "Feature", "properties": { "id": "2780", "country": "India", "iso3": "IND", "gwno": 750.0, "year": 1998, "geo_id": 8690, "geolocation": "Rajkot", "level": 2, "adm1": "Gujarat", "adm2": "Rajkot", "adm3": null, "location": "Rajkot", "historical": 0, "hist_country": null, "disastertype": "storm", "disasterno": "1998-0183", "latitude": 22.0149433, "longitude": 70.76149605000001 }, "geometry": { "type": "Point", "coordinates": [ 70.76149605, 22.0149433 ] } },
{ "type": "Feature", "properties": { "id": "2780", "country": "India", "iso3": "IND", "gwno": 750.0, "year": 1998, "geo_id": 8767, "geolocation": "Surat", "level": 2, "adm1": "Gujarat", "adm2": "Surat", "adm3": null, "location": "Surat", "historical": 0, "hist_country": null, "disastertype": "storm", "disasterno": "1998-0183", "latitude": 21.26454257, "longitude": 73.0734589 }, "geometry": { "type": "Point", "coordinates": [ 73.0734589, 21.26454257 ] } },
{ "type": "Feature", "properties": { "id": "2780", "country": "India", "iso3": "IND", "gwno": 750.0, "year": 1998, "geo_id": 8936, "geolocation": "Valsad", "level": 2, "adm1": "Gujarat", "adm2": "Valsad", "adm3": null, "location": "Valsad", "historical": 0, "hist_country": null, "disastertype": "storm", "disasterno": "1998-0183", "latitude": 20.41743299, "longitude": 73.12143584 }, "geometry": { "type": "Point", "coordinates": [ 73.12143584, 20.41743299 ] } },
{ "type": "Feature", "properties": { "id": "2785", "country": "India", "iso3": "IND", "gwno": 750.0, "year": 1999, "geo_id": 7820, "geolocation": "Bageshwar", "level": 2, "adm1": "Uttarakhand", "adm2": "Bageshwar", "adm3": null, "location": "Bageshwar", "historical": 0, "hist_country": null, "disastertype": "earthquake", "disasterno": "1999-0099", "latitude": 29.99572737, "longitude": 79.84641101 }, "geometry": { "type": "Point", "coordinates": [ 79.84641101, 29.99572737 ] } },
{ "type": "Feature", "properties": { "id": "2785", "country": "India", "iso3": "IND", "gwno": 750.0, "year": 1999, "geo_id": 7947, "geolocation": "Chamoli", "level": 2, "adm1": "Uttarakhand", "adm2": "Chamoli", "adm3": null, "location": "Chamoli", "historical": 0, "hist_country": null, "disastertype": "earthquake", "disasterno": "1999-0099", "latitude": 30.49807762, "longitude": 79.55785969 }, "geometry": { "type": "Point", "coordinates": [ 79.55785969, 30.49807762 ] } },
{ "type": "Feature", "properties": { "id": "2785", "country": "India", "iso3": "IND", "gwno": 750.0, "year": 1999, "geo_id": 8705, "geolocation": "Rudraprayag", "level": 2, "adm1": "Uttarakhand", "adm2": "Rudraprayag", "adm3": null, "location": "Rudraprayag", "historical": 0, "hist_country": null, "disastertype": "earthquake", "disasterno": "1999-0099", "latitude": 30.5935937, "longitude": 79.09749807 }, "geometry": { "type": "Point", "coordinates": [ 79.09749807, 30.5935937 ] } },
{ "type": "Feature", "properties": { "id": "2785", "country": "India", "iso3": "IND", "gwno": 750.0, "year": 1999, "geo_id": 8809, "geolocation": "Tehri Garhwal", "level": 2, "adm1": "Uttarakhand", "adm2": "Tehri Garhwal", "adm3": null, "location": "Tehri Garhwal", "historical": 0, "hist_country": null, "disastertype": "earthquake", "disasterno": "1999-0099", "latitude": 30.44316264, "longitude": 78.56945826 }, "geometry": { "type": "Point", "coordinates": [ 78.56945826, 30.44316264 ] } },
{ "type": "Feature", "properties": { "id": "2788", "country": "India", "iso3": "IND", "gwno": 750.0, "year": 1999, "geo_id": 8049, "geolocation": "Gajapati", "level": 2, "adm1": "Odisha", "adm2": "Gajapati", "adm3": null, "location": "Gajapathi", "historical": 0, "hist_country": null, "disastertype": "storm", "disasterno": "1999-0401", "latitude": 19.16537012, "longitude": 84.1542009 }, "geometry": { "type": "Point", "coordinates": [ 84.1542009, 19.16537012 ] } },
{ "type": "Feature", "properties": { "id": "2788", "country": "India", "iso3": "IND", "gwno": 750.0, "year": 1999, "geo_id": 8057, "geolocation": "Ganjam", "level": 2, "adm1": "Odisha", "adm2": "Ganjam", "adm3": null, "location": "Ganjam", "historical": 0, "hist_country": null, "disastertype": "storm", "disasterno": "1999-0401", "latitude": 19.62190014, "longitude": 84.65996467 }, "geometry": { "type": "Point", "coordinates": [ 84.65996467, 19.62190014 ] } },
{ "type": "Feature", "properties": { "id": "2788", "country": "India", "iso3": "IND", "gwno": 750.0, "year": 1999, "geo_id": 8348, "geolocation": "Khordha", "level": 2, "adm1": "Odisha", "adm2": "Khordha", "adm3": null, "location": "Khurda", "historical": 0, "hist_country": null, "disastertype": "storm", "disasterno": "1999-0401", "latitude": 20.08247851, "longitude": 85.50483769 }, "geometry": { "type": "Point", "coordinates": [ 85.50483769, 20.08247851 ] } },
{ "type": "Feature", "properties": { "id": "2789", "country": "India", "iso3": "IND", "gwno": 750.0, "year": 1999, "geo_id": 7874, "geolocation": "Bhadrak", "level": 2, "adm1": "Odisha", "adm2": "Bhadrak", "adm3": null, "location": "Bhadrak", "historical": 0, "hist_country": null, "disastertype": "storm", "disasterno": "1999-0425", "latitude": 20.97856004, "longitude": 86.61667215 }, "geometry": { "type": "Point", "coordinates": [ 86.61667215, 20.97856004 ] } },
{ "type": "Feature", "properties": { "id": "2789", "country": "India", "iso3": "IND", "gwno": 750.0, "year": 1999, "geo_id": 7984, "geolocation": "Cuttack", "level": 2, "adm1": "Odisha", "adm2": "Cuttack", "adm3": null, "location": "Cuttack", "historical": 0, "hist_country": null, "disastertype": "storm", "disasterno": "1999-0425", "latitude": 20.44239318, "longitude": 85.6982686 }, "geometry": { "type": "Point", "coordinates": [ 85.6982686, 20.44239318 ] } },
{ "type": "Feature", "properties": { "id": "2789", "country": "India", "iso3": "IND", "gwno": 750.0, "year": 1999, "geo_id": 8026, "geolocation": "Dhenkanal", "level": 2, "adm1": "Odisha", "adm2": "Dhenkanal", "adm3": null, "location": "Dhenkanal", "historical": 0, "hist_country": null, "disastertype": "storm", "disasterno": "1999-0425", "latitude": 20.82055836, "longitude": 85.51878477 }, "geometry": { "type": "Point", "coordinates": [ 85.51878477, 20.82055836 ] } },
{ "type": "Feature", "properties": { "id": "2789", "country": "India", "iso3": "IND", "gwno": 750.0, "year": 1999, "geo_id": 8183, "geolocation": "Jagatsinghapur", "level": 2, "adm1": "Odisha", "adm2": "Jagatsinghapur", "adm3": null, "location": "Jagatsinghpur", "historical": 0, "hist_country": null, "disastertype": "storm", "disasterno": "1999-0425", "latitude": 20.21756098, "longitude": 86.32964206 }, "geometry": { "type": "Point", "coordinates": [ 86.32964206, 20.21756098 ] } },
{ "type": "Feature", "properties": { "id": "2789", "country": "India", "iso3": "IND", "gwno": 750.0, "year": 1999, "geo_id": 8193, "geolocation": "Jajapur", "level": 2, "adm1": "Odisha", "adm2": "Jajapur", "adm3": null, "location": "Jajapur", "historical": 0, "hist_country": null, "disastertype": "storm", "disasterno": "1999-0425", "latitude": 20.8497324, "longitude": 86.14624701 }, "geometry": { "type": "Point", "coordinates": [ 86.14624701, 20.8497324 ] } },
{ "type": "Feature", "properties": { "id": "2789", "country": "India", "iso3": "IND", "gwno": 750.0, "year": 1999, "geo_id": 8305, "geolocation": "Kendrapara", "level": 2, "adm1": "Odisha", "adm2": "Kendrapara", "adm3": null, "location": "Kendrapara", "historical": 0, "hist_country": null, "disastertype": "storm", "disasterno": "1999-0425", "latitude": 20.54637395, "longitude": 86.60225642 }, "geometry": { "type": "Point", "coordinates": [ 86.60225642, 20.54637395 ] } },
{ "type": "Feature", "properties": { "id": "2789", "country": "India", "iso3": "IND", "gwno": 750.0, "year": 1999, "geo_id": 8311, "geolocation": "Kendujhar", "level": 2, "adm1": "Odisha", "adm2": "Kendujhar", "adm3": null, "location": "Keonjhar", "historical": 0, "hist_country": null, "disastertype": "storm", "disasterno": "1999-0425", "latitude": 21.53191209, "longitude": 85.6991815 }, "geometry": { "type": "Point", "coordinates": [ 85.6991815, 21.53191209 ] } },
{ "type": "Feature", "properties": { "id": "2789", "country": "India", "iso3": "IND", "gwno": 750.0, "year": 1999, "geo_id": 8349, "geolocation": "Khordha", "level": 2, "adm1": "Odisha", "adm2": "Khordha", "adm3": null, "location": "Khurda", "historical": 0, "hist_country": null, "disastertype": "storm", "disasterno": "1999-0425", "latitude": 20.08247851, "longitude": 85.50483769 }, "geometry": { "type": "Point", "coordinates": [ 85.50483769, 20.08247851 ] } },
{ "type": "Feature", "properties": { "id": "2789", "country": "India", "iso3": "IND", "gwno": 750.0, "year": 1999, "geo_id": 8485, "geolocation": "Mayurbhanj", "level": 2, "adm1": "Odisha", "adm2": "Mayurbhanj", "adm3": null, "location": "Mayurbhang", "historical": 0, "hist_country": null, "disastertype": "storm", "disasterno": "1999-0425", "latitude": 21.890497, "longitude": 86.40634462 }, "geometry": { "type": "Point", "coordinates": [ 86.40634462, 21.890497 ] } },
{ "type": "Feature", "properties": { "id": "2789", "country": "India", "iso3": "IND", "gwno": 750.0, "year": 1999, "geo_id": 8545, "geolocation": "Nayagarh", "level": 2, "adm1": "Odisha", "adm2": "Nayagarh", "adm3": null, "location": "Nayagarh", "historical": 0, "hist_country": null, "disastertype": "storm", "disasterno": "1999-0425", "latitude": 20.20652947, "longitude": 84.99328054 }, "geometry": { "type": "Point", "coordinates": [ 84.99328054, 20.20652947 ] } },
{ "type": "Feature", "properties": { "id": "2792", "country": "India", "iso3": "IND", "gwno": 750.0, "year": 2000, "geo_id": 7982, "geolocation": "Cuddapah", "level": 3, "adm1": "Andhra Pradesh", "adm2": "Y.S.R.", "adm3": "Cuddapah", "location": "Cuddapah", "historical": 0, "hist_country": null, "disastertype": "flood", "disasterno": "2000-0534", "latitude": 14.4705228, "longitude": 78.73399035 }, "geometry": { "type": "Point", "coordinates": [ 78.73399035, 14.4705228 ] } },
{ "type": "Feature", "properties": { "id": "2792", "country": "India", "iso3": "IND", "gwno": 750.0, "year": 2000, "geo_id": 8038, "geolocation": "East Godavari", "level": 2, "adm1": "Andhra Pradesh", "adm2": "East Godavari", "adm3": null, "location": "East Gavari", "historical": 0, "hist_country": null, "disastertype": "flood", "disasterno": "2000-0534", "latitude": 17.18512821, "longitude": 82.00214406000001 }, "geometry": { "type": "Point", "coordinates": [ 82.00214406, 17.18512821 ] } },
{ "type": "Feature", "properties": { "id": "2792", "country": "India", "iso3": "IND", "gwno": 750.0, "year": 2000, "geo_id": 8123, "geolocation": "Guntur", "level": 2, "adm1": "Andhra Pradesh", "adm2": "Guntur", "adm3": null, "location": "Guntur", "historical": 0, "hist_country": null, "disastertype": "flood", "disasterno": "2000-0534", "latitude": 16.29023485, "longitude": 80.08194333 }, "geometry": { "type": "Point", "coordinates": [ 80.08194333, 16.29023485 ] } },
{ "type": "Feature", "properties": { "id": "2792", "country": "India", "iso3": "IND", "gwno": 750.0, "year": 2000, "geo_id": 8275, "geolocation": "Karimnagar", "level": 2, "adm1": "Telangana", "adm2": "Karimnagar", "adm3": null, "location": "Karimnagar", "historical": 0, "hist_country": null, "disastertype": "flood", "disasterno": "2000-0534", "latitude": 18.54511489, "longitude": 79.23560559000001 }, "geometry": { "type": "Point", "coordinates": [ 79.23560559, 18.54511489 ] } },
{ "type": "Feature", "properties": { "id": "2792", "country": "India", "iso3": "IND", "gwno": 750.0, "year": 2000, "geo_id": 8341, "geolocation": "Khammam", "level": 2, "adm1": "Telangana", "adm2": "Khammam", "adm3": null, "location": "Khammam", "historical": 0, "hist_country": null, "disastertype": "flood", "disasterno": "2000-0534", "latitude": 17.59082823, "longitude": 80.67917545 }, "geometry": { "type": "Point", "coordinates": [ 80.67917545, 17.59082823 ] } },
{ "type": "Feature", "properties": { "id": "2792", "country": "India", "iso3": "IND", "gwno": 750.0, "year": 2000, "geo_id": 8379, "geolocation": "Krishna", "level": 2, "adm1": "Andhra Pradesh", "adm2": "Krishna", "adm3": null, "location": "Krishna", "historical": 0, "hist_country": null, "disastertype": "flood", "disasterno": "2000-0534", "latitude": 16.55006848, "longitude": 80.79256277 }, "geometry": { "type": "Point", "coordinates": [ 80.79256277, 16.55006848 ] } },
{ "type": "Feature", "properties": { "id": "2792", "country": "India", "iso3": "IND", "gwno": 750.0, "year": 2000, "geo_id": 8393, "geolocation": "Kurnool", "level": 2, "adm1": "Andhra Pradesh", "adm2": "Kurnool", "adm3": null, "location": "Kurnool", "historical": 0, "hist_country": null, "disastertype": "flood", "disasterno": "2000-0534", "latitude": 15.52775939, "longitude": 77.99973082 }, "geometry": { "type": "Point", "coordinates": [ 77.99973082, 15.52775939 ] } },
{ "type": "Feature", "properties": { "id": "2792", "country": "India", "iso3": "IND", "gwno": 750.0, "year": 2000, "geo_id": 8470, "geolocation": "Mahbubnagar", "level": 2, "adm1": "Telangana", "adm2": "Mahbubnagar", "adm3": null, "location": "Mahboobnagar", "historical": 0, "hist_country": null, "disastertype": "flood", "disasterno": "2000-0534", "latitude": 16.49340442, "longitude": 78.14042905 }, "geometry": { "type": "Point", "coordinates": [ 78.14042905, 16.49340442 ] } },
{ "type": "Feature", "properties": { "id": "2792", "country": "India", "iso3": "IND", "gwno": 750.0, "year": 2000, "geo_id": 8488, "geolocation": "Medak", "level": 2, "adm1": "Telangana", "adm2": "Medak", "adm3": null, "location": "Medak", "historical": 0, "hist_country": null, "disastertype": "flood", "disasterno": "2000-0534", "latitude": 17.88492363, "longitude": 78.21139647 }, "geometry": { "type": "Point", "coordinates": [ 78.21139647, 17.88492363 ] } },
{ "type": "Feature", "properties": { "id": "2792", "country": "India", "iso3": "IND", "gwno": 750.0, "year": 2000, "geo_id": 8530, "geolocation": "Nalgonda", "level": 2, "adm1": "Telangana", "adm2": "Nalgonda", "adm3": null, "location": "Nalgonda", "historical": 0, "hist_country": null, "disastertype": "flood", "disasterno": "2000-0534", "latitude": 17.06194463, "longitude": 79.28166651 }, "geometry": { "type": "Point", "coordinates": [ 79.28166651, 17.06194463 ] } },
{ "type": "Feature", "properties": { "id": "2792", "country": "India", "iso3": "IND", "gwno": 750.0, "year": 2000, "geo_id": 8550, "geolocation": "Nellore", "level": 2, "adm1": "Andhra Pradesh", "adm2": "Nellore", "adm3": null, "location": "Nellore", "historical": 0, "hist_country": null, "disastertype": "flood", "disasterno": "2000-0534", "latitude": 14.43556427, "longitude": 79.72017697 }, "geometry": { "type": "Point", "coordinates": [ 79.72017697, 14.43556427 ] } },
{ "type": "Feature", "properties": { "id": "2792", "country": "India", "iso3": "IND", "gwno": 750.0, "year": 2000, "geo_id": 8556, "geolocation": "Nizamabad", "level": 2, "adm1": "Telangana", "adm2": "Nizamabad", "adm3": null, "location": "Nizamabad", "historical": 0, "hist_country": null, "disastertype": "flood", "disasterno": "2000-0534", "latitude": 18.52357578, "longitude": 78.13906639 }, "geometry": { "type": "Point", "coordinates": [ 78.13906639, 18.52357578 ] } },
{ "type": "Feature", "properties": { "id": "2792", "country": "India", "iso3": "IND", "gwno": 750.0, "year": 2000, "geo_id": 8700, "geolocation": "Ranga Reddy", "level": 2, "adm1": "Telangana", "adm2": "Ranga Reddy", "adm3": null, "location": "Rangareddy", "historical": 0, "hist_country": null, "disastertype": "flood", "disasterno": "2000-0534", "latitude": 17.28449614, "longitude": 78.17276898 }, "geometry": { "type": "Point", "coordinates": [ 78.17276898, 17.28449614 ] } },
{ "type": "Feature", "properties": { "id": "2792", "country": "India", "iso3": "IND", "gwno": 750.0, "year": 2000, "geo_id": 8945, "geolocation": "Visakhapatnam", "level": 2, "adm1": "Andhra Pradesh", "adm2": "Visakhapatnam", "adm3": null, "location": "Visakhapatam", "historical": 0, "hist_country": null, "disastertype": "flood", "disasterno": "2000-0534", "latitude": 17.88493739, "longitude": 82.68205636 }, "geometry": { "type": "Point", "coordinates": [ 82.68205636, 17.88493739 ] } },
{ "type": "Feature", "properties": { "id": "2792", "country": "India", "iso3": "IND", "gwno": 750.0, "year": 2000, "geo_id": 8951, "geolocation": "Warangal", "level": 2, "adm1": "Telangana", "adm2": "Warangal", "adm3": null, "location": "Warangal", "historical": 0, "hist_country": null, "disastertype": "flood", "disasterno": "2000-0534", "latitude": 17.94921107, "longitude": 79.7917581 }, "geometry": { "type": "Point", "coordinates": [ 79.7917581, 17.94921107 ] } },
{ "type": "Feature", "properties": { "id": "2792", "country": "India", "iso3": "IND", "gwno": 750.0, "year": 2000, "geo_id": 9007, "geolocation": "West Godavari", "level": 2, "adm1": "Andhra Pradesh", "adm2": "West Godavari", "adm3": null, "location": "Wes Govari", "historical": 0, "hist_country": null, "disastertype": "flood", "disasterno": "2000-0534", "latitude": 16.88638554, "longitude": 81.39289921 }, "geometry": { "type": "Point", "coordinates": [ 81.39289921, 16.88638554 ] } },
{ "type": "Feature", "properties": { "id": "2793", "country": "India", "iso3": "IND", "gwno": 750.0, "year": 2000, "geo_id": 7848, "geolocation": "Banka", "level": 2, "adm1": "Bihar", "adm2": "Banka", "adm3": null, "location": "Banka", "historical": 0, "hist_country": null, "disastertype": "flood", "disasterno": "2000-0610", "latitude": 24.85181222, "longitude": 86.83365055 }, "geometry": { "type": "Point", "coordinates": [ 86.83365055, 24.85181222 ] } },
{ "type": "Feature", "properties": { "id": "2793", "country": "India", "iso3": "IND", "gwno": 750.0, "year": 2000, "geo_id": 7856, "geolocation": "Barddhaman", "level": 2, "adm1": "West Bengal", "adm2": "Barddhaman", "adm3": null, "location": "Burdwan", "historical": 0, "hist_country": null, "disastertype": "flood", "disasterno": "2000-0610", "latitude": 23.42610967, "longitude": 87.76168736 }, "geometry": { "type": "Point", "coordinates": [ 87.76168736, 23.42610967 ] } },
{ "type": "Feature", "properties": { "id": "2793", "country": "India", "iso3": "IND", "gwno": 750.0, "year": 2000, "geo_id": 7878, "geolocation": "Bhagalpur", "level": 2, "adm1": "Bihar", "adm2": "Bhagalpur", "adm3": null, "location": "Bhalagpur", "historical": 0, "hist_country": null, "disastertype": "flood", "disasterno": "2000-0610", "latitude": 25.26889636, "longitude": 87.07777418000001 }, "geometry": { "type": "Point", "coordinates": [ 87.07777418, 25.26889636 ] } },
{ "type": "Feature", "properties": { "id": "2793", "country": "India", "iso3": "IND", "gwno": 750.0, "year": 2000, "geo_id": 7936, "geolocation": "Birbhum", "level": 2, "adm1": "West Bengal", "adm2": "Birbhum", "adm3": null, "location": "Birbhum", "historical": 0, "hist_country": null, "disastertype": "flood", "disasterno": "2000-0610", "latitude": 23.95194467, "longitude": 87.6624877 }, "geometry": { "type": "Point", "coordinates": [ 87.6624877, 23.95194467 ] } },
{ "type": "Feature", "properties": { "id": "2793", "country": "India", "iso3": "IND", "gwno": 750.0, "year": 2000, "geo_id": 8035, "geolocation": "Dumka", "level": 2, "adm1": "Jharkhand", "adm2": "Dumka", "adm3": null, "location": "Dumka", "historical": 0, "hist_country": null, "disastertype": "flood", "disasterno": "2000-0610", "latitude": 24.31811548, "longitude": 87.26121361 }, "geometry": { "type": "Point", "coordinates": [ 87.26121361, 24.31811548 ] } },
{ "type": "Feature", "properties": { "id": "2793", "country": "India", "iso3": "IND", "gwno": 750.0, "year": 2000, "geo_id": 8477, "geolocation": "Maldah", "level": 2, "adm1": "West Bengal", "adm2": "Maldah", "adm3": null, "location": "Malda", "historical": 0, "hist_country": null, "disastertype": "flood", "disasterno": "2000-0610", "latitude": 25.13513623, "longitude": 88.08873996 }, "geometry": { "type": "Point", "coordinates": [ 88.08873996, 25.13513623 ] } },
{ "type": "Feature", "properties": { "id": "2793", "country": "India", "iso3": "IND", "gwno": 750.0, "year": 2000, "geo_id": 8506, "geolocation": "Munger", "level": 2, "adm1": "Bihar", "adm2": "Munger", "adm3": null, "location": "Munger", "historical": 0, "hist_country": null, "disastertype": "flood", "disasterno": "2000-0610", "latitude": 25.20892285, "longitude": 86.5265508 }, "geometry": { "type": "Point", "coordinates": [ 86.5265508, 25.20892285 ] } },
{ "type": "Feature", "properties": { "id": "2793", "country": "India", "iso3": "IND", "gwno": 750.0, "year": 2000, "geo_id": 8508, "geolocation": "Murshidabad", "level": 2, "adm1": "West Bengal", "adm2": "Murshidabad", "adm3": null, "location": "Murshidabad", "historical": 0, "hist_country": null, "disastertype": "flood", "disasterno": "2000-0610", "latitude": 24.16171931, "longitude": 88.22615944 }, "geometry": { "type": "Point", "coordinates": [ 88.22615944, 24.16171931 ] } },
{ "type": "Feature", "properties": { "id": "2793", "country": "India", "iso3": "IND", "gwno": 750.0, "year": 2000, "geo_id": 8716, "geolocation": "Sahibganj", "level": 2, "adm1": "Jharkhand", "adm2": "Sahibganj", "adm3": null, "location": "Sahebganj", "historical": 0, "hist_country": null, "disastertype": "flood", "disasterno": "2000-0610", "latitude": 25.00783593, "longitude": 87.67479833 }, "geometry": { "type": "Point", "coordinates": [ 87.67479833, 25.00783593 ] } },
{ "type": "Feature", "properties": { "id": "2793", "country": "India", "iso3": "IND", "gwno": 750.0, "year": 2000, "geo_id": 8726, "geolocation": "Sheikhpura", "level": 2, "adm1": "Bihar", "adm2": "Sheikhpura", "adm3": null, "location": "Sheikhpura", "historical": 0, "hist_country": null, "disastertype": "flood", "disasterno": "2000-0610", "latitude": 25.13228839, "longitude": 85.81502314 }, "geometry": { "type": "Point", "coordinates": [ 85.81502314, 25.13228839 ] } },
{ "type": "Feature", "properties": { "id": "2796", "country": "India", "iso3": "IND", "gwno": 750.0, "year": 2000, "geo_id": 7976, "geolocation": "Cuddalore", "level": 2, "adm1": "Tamil Nadu", "adm2": "Cuddalore", "adm3": null, "location": "Cuddalore coast", "historical": 0, "hist_country": null, "disastertype": "storm", "disasterno": "2000-0785", "latitude": 11.52490531, "longitude": 79.44715025000001 }, "geometry": { "type": "Point", "coordinates": [ 79.44715025, 11.52490531 ] } },
{ "type": "Feature", "properties": { "id": "2796", "country": "India", "iso3": "IND", "gwno": 750.0, "year": 2000, "geo_id": 8519, "geolocation": "Nagappattinam", "level": 2, "adm1": "Tamil Nadu", "adm2": "Nagappattinam", "adm3": null, "location": "Sirkali", "historical": 0, "hist_country": null, "disastertype": "storm", "disasterno": "2000-0785", "latitude": 10.86120155, "longitude": 79.73576795 }, "geometry": { "type": "Point", "coordinates": [ 79.73576795, 10.86120155 ] } },
{ "type": "Feature", "properties": { "id": "2796", "country": "India", "iso3": "IND", "gwno": 750.0, "year": 2000, "geo_id": 8816, "geolocation": "Thanjavur", "level": 2, "adm1": "Tamil Nadu", "adm2": "Thanjavur", "adm3": null, "location": "Thanjavur", "historical": 0, "hist_country": null, "disastertype": "storm", "disasterno": "2000-0785", "latitude": 10.65639586, "longitude": 79.22342874 }, "geometry": { "type": "Point", "coordinates": [ 79.22342874, 10.65639586 ] } },
{ "type": "Feature", "properties": { "id": "2796", "country": "India", "iso3": "IND", "gwno": 750.0, "year": 2000, "geo_id": 8822, "geolocation": "Thiruvallur", "level": 2, "adm1": "Tamil Nadu", "adm2": "Thiruvallur", "adm3": null, "location": "Tiruvallur", "historical": 0, "hist_country": null, "disastertype": "storm", "disasterno": "2000-0785", "latitude": 13.23421211, "longitude": 79.93380177 }, "geometry": { "type": "Point", "coordinates": [ 79.93380177, 13.23421211 ] } },
{ "type": "Feature", "properties": { "id": "2796", "country": "India", "iso3": "IND", "gwno": 750.0, "year": 2000, "geo_id": 8826, "geolocation": "Thiruvarur", "level": 2, "adm1": "Tamil Nadu", "adm2": "Thiruvarur", "adm3": null, "location": "Tiruvarur", "historical": 0, "hist_country": null, "disastertype": "storm", "disasterno": "2000-0785", "latitude": 10.67184836, "longitude": 79.53370082000001 }, "geometry": { "type": "Point", "coordinates": [ 79.53370082, 10.67184836 ] } },
{ "type": "Feature", "properties": { "id": "2796", "country": "India", "iso3": "IND", "gwno": 750.0, "year": 2000, "geo_id": 8839, "geolocation": "Tirunelveli", "level": 2, "adm1": "Tamil Nadu", "adm2": "Tirunelveli", "adm3": null, "location": "Papanasam", "historical": 0, "hist_country": null, "disastertype": "storm", "disasterno": "2000-0785", "latitude": 8.789788196, "longitude": 77.52245428000001 }, "geometry": { "type": "Point", "coordinates": [ 77.52245428, 8.789788196 ] } },
{ "type": "Feature", "properties": { "id": "2797", "country": "India", "iso3": "IND", "gwno": 750.0, "year": 2001, "geo_id": 7673, "geolocation": "Ahmadabad", "level": 2, "adm1": "Gujarat", "adm2": "Ahmadabad", "adm3": null, "location": "Ahmadabad", "historical": 0, "hist_country": null, "disastertype": "earthquake", "disasterno": "2001-0033", "latitude": 22.72911928, "longitude": 72.20432773 }, "geometry": { "type": "Point", "coordinates": [ 72.20432773, 22.72911928 ] } },
{ "type": "Feature", "properties": { "id": "2797", "country": "India", "iso3": "IND", "gwno": 750.0, "year": 2001, "geo_id": 7681, "geolocation": "Amreli", "level": 2, "adm1": "Gujarat", "adm2": "Amreli", "adm3": null, "location": "Amreli", "historical": 0, "hist_country": null, "disastertype": "earthquake", "disasterno": "2001-0033", "latitude": 21.42212608, "longitude": 71.26448769 }, "geometry": { "type": "Point", "coordinates": [ 71.26448769, 21.42212608 ] } },
{ "type": "Feature", "properties": { "id": "2797", "country": "India", "iso3": "IND", "gwno": 750.0, "year": 2001, "geo_id": 7684, "geolocation": "Anand", "level": 2, "adm1": "Gujarat", "adm2": "Anand", "adm3": null, "location": "Anand", "historical": 0, "hist_country": null, "disastertype": "earthquake", "disasterno": "2001-0033", "latitude": 22.44939448, "longitude": 72.7899001 }, "geometry": { "type": "Point", "coordinates": [ 72.7899001, 22.44939448 ] } },
{ "type": "Feature", "properties": { "id": "2797", "country": "India", "iso3": "IND", "gwno": 750.0, "year": 2001, "geo_id": 7844, "geolocation": "Banas Kantha", "level": 2, "adm1": "Gujarat", "adm2": "Banas Kantha", "adm3": null, "location": "Banas Kantha", "historical": 0, "hist_country": null, "disastertype": "earthquake", "disasterno": "2001-0033", "latitude": 24.28099748, "longitude": 72.03809257 }, "geometry": { "type": "Point", "coordinates": [ 72.03809257, 24.28099748 ] } },
{ "type": "Feature", "properties": { "id": "2797", "country": "India", "iso3": "IND", "gwno": 750.0, "year": 2001, "geo_id": 7883, "geolocation": "Bharuch", "level": 2, "adm1": "Gujarat", "adm2": "Bharuch", "adm3": null, "location": "Bharuch", "historical": 0, "hist_country": null, "disastertype": "earthquake", "disasterno": "2001-0033", "latitude": 21.78666651, "longitude": 72.92475605 }, "geometry": { "type": "Point", "coordinates": [ 72.92475605, 21.78666651 ] } },
{ "type": "Feature", "properties": { "id": "2797", "country": "India", "iso3": "IND", "gwno": 750.0, "year": 2001, "geo_id": 7990, "geolocation": "Dahod", "level": 2, "adm1": "Gujarat", "adm2": "Dahod", "adm3": null, "location": "Dahdod", "historical": 0, "hist_country": null, "disastertype": "earthquake", "disasterno": "2001-0033", "latitude": 22.79658752, "longitude": 74.06633483 }, "geometry": { "type": "Point", "coordinates": [ 74.06633483, 22.79658752 ] } },
{ "type": "Feature", "properties": { "id": "2797", "country": "India", "iso3": "IND", "gwno": 750.0, "year": 2001, "geo_id": 8053, "geolocation": "Gandhinagar", "level": 2, "adm1": "Gujarat", "adm2": "Gandhinagar", "adm3": null, "location": "Gandhinagar", "historical": 0, "hist_country": null, "disastertype": "earthquake", "disasterno": "2001-0033", "latitude": 23.20990618, "longitude": 72.70209791000001 }, "geometry": { "type": "Point", "coordinates": [ 72.70209791, 23.20990618 ] } },
{ "type": "Feature", "properties": { "id": "2797", "country": "India", "iso3": "IND", "gwno": 750.0, "year": 2001, "geo_id": 8229, "geolocation": "Jamnagar", "level": 2, "adm1": "Gujarat", "adm2": "Jamnagar", "adm3": null, "location": "Jamnagar", "historical": 0, "hist_country": null, "disastertype": "earthquake", "disasterno": "2001-0033", "latitude": 22.33618485, "longitude": 70.23238871 }, "geometry": { "type": "Point", "coordinates": [ 70.23238871, 22.33618485 ] } },
{ "type": "Feature", "properties": { "id": "2797", "country": "India", "iso3": "IND", "gwno": 750.0, "year": 2001, "geo_id": 8245, "geolocation": "Junagadh", "level": 2, "adm1": "Gujarat", "adm2": "Junagadh", "adm3": null, "location": "Junagadh", "historical": 0, "hist_country": null, "disastertype": "earthquake", "disasterno": "2001-0033", "latitude": 21.25423825, "longitude": 70.57263302 }, "geometry": { "type": "Point", "coordinates": [ 70.57263302, 21.25423825 ] } },
{ "type": "Feature", "properties": { "id": "2797", "country": "India", "iso3": "IND", "gwno": 750.0, "year": 2001, "geo_id": 8346, "geolocation": "Kheda", "level": 2, "adm1": "Gujarat", "adm2": "Kheda", "adm3": null, "location": "Kheda", "historical": 0, "hist_country": null, "disastertype": "earthquake", "disasterno": "2001-0033", "latitude": 22.8768383, "longitude": 73.02447162 }, "geometry": { "type": "Point", "coordinates": [ 73.02447162, 22.8768383 ] } },
{ "type": "Feature", "properties": { "id": "2797", "country": "India", "iso3": "IND", "gwno": 750.0, "year": 2001, "geo_id": 8475, "geolocation": "Mahesana", "level": 2, "adm1": "Gujarat", "adm2": "Mahesana", "adm3": null, "location": "Mahesana", "historical": 0, "hist_country": null, "disastertype": "earthquake", "disasterno": "2001-0033", "latitude": 23.57969264, "longitude": 72.49688414000001 }, "geometry": { "type": "Point", "coordinates": [ 72.49688414, 23.57969264 ] } },
{ "type": "Feature", "properties": { "id": "2797", "country": "India", "iso3": "IND", "gwno": 750.0, "year": 2001, "geo_id": 8541, "geolocation": "Navsari", "level": 2, "adm1": "Gujarat", "adm2": "Navsari", "adm3": null, "location": "Navsari", "historical": 0, "hist_country": null, "disastertype": "earthquake", "disasterno": "2001-0033", "latitude": 20.81218482, "longitude": 73.10551991 }, "geometry": { "type": "Point", "coordinates": [ 73.10551991, 20.81218482 ] } },
{ "type": "Feature", "properties": { "id": "2797", "country": "India", "iso3": "IND", "gwno": 750.0, "year": 2001, "geo_id": 8620, "geolocation": "Patan", "level": 2, "adm1": "Gujarat", "adm2": "Patan", "adm3": null, "location": "Patan", "historical": 0, "hist_country": null, "disastertype": "earthquake", "disasterno": "2001-0033", "latitude": 23.76897852, "longitude": 71.80140683 }, "geometry": { "type": "Point", "coordinates": [ 71.80140683, 23.76897852 ] } },
{ "type": "Feature", "properties": { "id": "2797", "country": "India", "iso3": "IND", "gwno": 750.0, "year": 2001, "geo_id": 8627, "geolocation": "Porbandar", "level": 2, "adm1": "Gujarat", "adm2": "Porbandar", "adm3": null, "location": "Porbandar", "historical": 0, "hist_country": null, "disastertype": "earthquake", "disasterno": "2001-0033", "latitude": 21.63737945, "longitude": 69.80371801 }, "geometry": { "type": "Point", "coordinates": [ 69.80371801, 21.63737945 ] } },
{ "type": "Feature", "properties": { "id": "2797", "country": "India", "iso3": "IND", "gwno": 750.0, "year": 2001, "geo_id": 8691, "geolocation": "Rajkot", "level": 2, "adm1": "Gujarat", "adm2": "Rajkot", "adm3": null, "location": "Rajkot", "historical": 0, "hist_country": null, "disastertype": "earthquake", "disasterno": "2001-0033", "latitude": 22.0149433, "longitude": 70.76149605000001 }, "geometry": { "type": "Point", "coordinates": [ 70.76149605, 22.0149433 ] } },
{ "type": "Feature", "properties": { "id": "2797", "country": "India", "iso3": "IND", "gwno": 750.0, "year": 2001, "geo_id": 8708, "geolocation": "Sabar Kantha", "level": 2, "adm1": "Gujarat", "adm2": "Sabar Kantha", "adm3": null, "location": "Sabar Kantha", "historical": 0, "hist_country": null, "disastertype": "earthquake", "disasterno": "2001-0033", "latitude": 23.80666439, "longitude": 73.03763379 }, "geometry": { "type": "Point", "coordinates": [ 73.03763379, 23.80666439 ] } },
{ "type": "Feature", "properties": { "id": "2797", "country": "India", "iso3": "IND", "gwno": 750.0, "year": 2001, "geo_id": 8768, "geolocation": "Surat", "level": 2, "adm1": "Gujarat", "adm2": "Surat", "adm3": null, "location": "Surat", "historical": 0, "hist_country": null, "disastertype": "earthquake", "disasterno": "2001-0033", "latitude": 21.26454257, "longitude": 73.0734589 }, "geometry": { "type": "Point", "coordinates": [ 73.0734589, 21.26454257 ] } },
{ "type": "Feature", "properties": { "id": "2797", "country": "India", "iso3": "IND", "gwno": 750.0, "year": 2001, "geo_id": 8773, "geolocation": "Surendranagar", "level": 2, "adm1": "Gujarat", "adm2": "Surendranagar", "adm3": null, "location": "Surendranagar", "historical": 0, "hist_country": null, "disastertype": "earthquake", "disasterno": "2001-0033", "latitude": 22.76841671, "longitude": 71.60708794 }, "geometry": { "type": "Point", "coordinates": [ 71.60708794, 22.76841671 ] } },
{ "type": "Feature", "properties": { "id": "2797", "country": "India", "iso3": "IND", "gwno": 750.0, "year": 2001, "geo_id": 8932, "geolocation": "Vadodara", "level": 2, "adm1": "Gujarat", "adm2": "Vadodara", "adm3": null, "location": "Vadodara", "historical": 0, "hist_country": null, "disastertype": "earthquake", "disasterno": "2001-0033", "latitude": 22.24629292, "longitude": 73.24968977 }, "geometry": { "type": "Point", "coordinates": [ 73.24968977, 22.24629292 ] } },
{ "type": "Feature", "properties": { "id": "2801", "country": "India", "iso3": "IND", "gwno": 750.0, "year": 2001, "geo_id": 7675, "geolocation": "Alappuzha", "level": 2, "adm1": "Kerala", "adm2": "Alappuzha", "adm3": null, "location": "Alapuzzha", "historical": 0, "hist_country": null, "disastertype": "flood", "disasterno": "2001-0387", "latitude": 9.413009259000001, "longitude": 76.44657618 }, "geometry": { "type": "Point", "coordinates": [ 76.44657618, 9.413009259 ] } },
{ "type": "Feature", "properties": { "id": "2801", "country": "India", "iso3": "IND", "gwno": 750.0, "year": 2001, "geo_id": 8176, "geolocation": "Idukki", "level": 2, "adm1": "Kerala", "adm2": "Idukki", "adm3": null, "location": "Idukki", "historical": 0, "hist_country": null, "disastertype": "flood", "disasterno": "2001-0387", "latitude": 9.874426633000001, "longitude": 77.01422266 }, "geometry": { "type": "Point", "coordinates": [ 77.01422266, 9.874426633 ] } },
{ "type": "Feature", "properties": { "id": "2801", "country": "India", "iso3": "IND", "gwno": 750.0, "year": 2001, "geo_id": 8367, "geolocation": "Kollam", "level": 2, "adm1": "Kerala", "adm2": "Kollam", "adm3": null, "location": "Kollam", "historical": 0, "hist_country": null, "disastertype": "flood", "disasterno": "2001-0387", "latitude": 8.954796002, "longitude": 76.86795887 }, "geometry": { "type": "Point", "coordinates": [ 76.86795887, 8.954796002 ] } },
{ "type": "Feature", "properties": { "id": "2801", "country": "India", "iso3": "IND", "gwno": 750.0, "year": 2001, "geo_id": 8373, "geolocation": "Kottayam", "level": 2, "adm1": "Kerala", "adm2": "Kottayam", "adm3": null, "location": "Kottayam", "historical": 0, "hist_country": null, "disastertype": "flood", "disasterno": "2001-0387", "latitude": 9.629075883000001, "longitude": 76.64813828 }, "geometry": { "type": "Point", "coordinates": [ 76.64813828, 9.629075883 ] } },
{ "type": "Feature", "properties": { "id": "2801", "country": "India", "iso3": "IND", "gwno": 750.0, "year": 2001, "geo_id": 8621, "geolocation": "Pathanamthitta", "level": 2, "adm1": "Kerala", "adm2": "Pathanamthitta", "adm3": null, "location": "Pathanamthitta", "historical": 0, "hist_country": null, "disastertype": "flood", "disasterno": "2001-0387", "latitude": 9.277143652, "longitude": 76.91429626 }, "geometry": { "type": "Point", "coordinates": [ 76.91429626, 9.277143652 ] } },
{ "type": "Feature", "properties": { "id": "2802", "country": "India", "iso3": "IND", "gwno": 750.0, "year": 2001, "geo_id": 7755, "geolocation": "Anugul", "level": 2, "adm1": "Odisha", "adm2": "Anugul", "adm3": null, "location": "Angul district", "historical": 0, "hist_country": null, "disastertype": "flood", "disasterno": "2001-0332", "latitude": 20.98189206, "longitude": 84.90308876 }, "geometry": { "type": "Point", "coordinates": [ 84.90308876, 20.98189206 ] } },
{ "type": "Feature", "properties": { "id": "2802", "country": "India", "iso3": "IND", "gwno": 750.0, "year": 2001, "geo_id": 7985, "geolocation": "Cuttack", "level": 2, "adm1": "Odisha", "adm2": "Cuttack", "adm3": null, "location": "Cuttack district", "historical": 0, "hist_country": null, "disastertype": "flood", "disasterno": "2001-0332", "latitude": 20.44239318, "longitude": 85.6982686 }, "geometry": { "type": "Point", "coordinates": [ 85.6982686, 20.44239318 ] } },
{ "type": "Feature", "properties": { "id": "2802", "country": "India", "iso3": "IND", "gwno": 750.0, "year": 2001, "geo_id": 8194, "geolocation": "Jajapur", "level": 2, "adm1": "Odisha", "adm2": "Jajapur", "adm3": null, "location": "Jajpur district", "historical": 0, "hist_country": null, "disastertype": "flood", "disasterno": "2001-0332", "latitude": 20.8497324, "longitude": 86.14624701 }, "geometry": { "type": "Point", "coordinates": [ 86.14624701, 20.8497324 ] } },
{ "type": "Feature", "properties": { "id": "2802", "country": "India", "iso3": "IND", "gwno": 750.0, "year": 2001, "geo_id": 8306, "geolocation": "Kendrapara", "level": 2, "adm1": "Odisha", "adm2": "Kendrapara", "adm3": null, "location": "Mahakalpada", "historical": 0, "hist_country": null, "disastertype": "flood", "disasterno": "2001-0332", "latitude": 20.54637395, "longitude": 86.60225642 }, "geometry": { "type": "Point", "coordinates": [ 86.60225642, 20.54637395 ] } },
{ "type": "Feature", "properties": { "id": "2802", "country": "India", "iso3": "IND", "gwno": 750.0, "year": 2001, "geo_id": 8350, "geolocation": "Khordha", "level": 2, "adm1": "Odisha", "adm2": "Khordha", "adm3": null, "location": "Khorda district", "historical": 0, "hist_country": null, "disastertype": "flood", "disasterno": "2001-0332", "latitude": 20.08247851, "longitude": 85.50483769 }, "geometry": { "type": "Point", "coordinates": [ 85.50483769, 20.08247851 ] } },
{ "type": "Feature", "properties": { "id": "2803", "country": "India", "iso3": "IND", "gwno": 750.0, "year": 2001, "geo_id": 8076, "geolocation": "Gopalganj", "level": 2, "adm1": "Bihar", "adm2": "Gopalganj", "adm3": null, "location": "Gopalganj", "historical": 0, "hist_country": null, "disastertype": "flood", "disasterno": "2001-0515", "latitude": 26.44536723, "longitude": 84.36768755 }, "geometry": { "type": "Point", "coordinates": [ 84.36768755, 26.44536723 ] } },
{ "type": "Feature", "properties": { "id": "2803", "country": "India", "iso3": "IND", "gwno": 750.0, "year": 2001, "geo_id": 8509, "geolocation": "Muzaffarpur", "level": 2, "adm1": "Bihar", "adm2": "Muzaffarpur", "adm3": null, "location": "Muzaffarpur", "historical": 0, "hist_country": null, "disastertype": "flood", "disasterno": "2001-0515", "latitude": 26.15305405, "longitude": 85.32182327 }, "geometry": { "type": "Point", "coordinates": [ 85.32182327, 26.15305405 ] } },
{ "type": "Feature", "properties": { "id": "2803", "country": "India", "iso3": "IND", "gwno": 750.0, "year": 2001, "geo_id": 8610, "geolocation": "Pashchim Champaran", "level": 2, "adm1": "Bihar", "adm2": "Pashchim Champaran", "adm3": null, "location": "West Champaran", "historical": 0, "hist_country": null, "disastertype": "flood", "disasterno": "2001-0515", "latitude": 27.07909842, "longitude": 84.33738272 }, "geometry": { "type": "Point", "coordinates": [ 84.33738272, 27.07909842 ] } },
{ "type": "Feature", "properties": { "id": "2803", "country": "India", "iso3": "IND", "gwno": 750.0, "year": 2001, "geo_id": 8622, "geolocation": "Patna", "level": 2, "adm1": "Bihar", "adm2": "Patna", "adm3": null, "location": "Waidhali", "historical": 0, "hist_country": null, "disastertype": "flood", "disasterno": "2001-0515", "latitude": 25.45569333, "longitude": 85.2158742 }, "geometry": { "type": "Point", "coordinates": [ 85.2158742, 25.45569333 ] } },
{ "type": "Feature", "properties": { "id": "2803", "country": "India", "iso3": "IND", "gwno": 750.0, "year": 2001, "geo_id": 8658, "geolocation": "Purba Champaran", "level": 2, "adm1": "Bihar", "adm2": "Purba Champaran", "adm3": null, "location": "East Champaran", "historical": 0, "hist_country": null, "disastertype": "flood", "disasterno": "2001-0515", "latitude": 26.62084684, "longitude": 84.91682914 }, "geometry": { "type": "Point", "coordinates": [ 84.91682914, 26.62084684 ] } },
{ "type": "Feature", "properties": { "id": "2803", "country": "India", "iso3": "IND", "gwno": 750.0, "year": 2001, "geo_id": 8720, "geolocation": "Saran", "level": 2, "adm1": "Bihar", "adm2": "Saran", "adm3": null, "location": "Saran", "historical": 0, "hist_country": null, "disastertype": "flood", "disasterno": "2001-0515", "latitude": 25.90678865, "longitude": 84.81556987 }, "geometry": { "type": "Point", "coordinates": [ 84.81556987, 25.90678865 ] } },
{ "type": "Feature", "properties": { "id": "2804", "country": "India", "iso3": "IND", "gwno": 750.0, "year": 2001, "geo_id": 8077, "geolocation": "Gopalganj", "level": 2, "adm1": "Bihar", "adm2": "Gopalganj", "adm3": null, "location": "Gopalganj", "historical": 0, "hist_country": null, "disastertype": "flood", "disasterno": "2001-0794", "latitude": 26.44536723, "longitude": 84.36768755 }, "geometry": { "type": "Point", "coordinates": [ 84.36768755, 26.44536723 ] } },
{ "type": "Feature", "properties": { "id": "2804", "country": "India", "iso3": "IND", "gwno": 750.0, "year": 2001, "geo_id": 8721, "geolocation": "Saran", "level": 2, "adm1": "Bihar", "adm2": "Saran", "adm3": null, "location": "Saran", "historical": 0, "hist_country": null, "disastertype": "flood", "disasterno": "2001-0794", "latitude": 25.90678865, "longitude": 84.81556987 }, "geometry": { "type": "Point", "coordinates": [ 84.81556987, 25.90678865 ] } },
{ "type": "Feature", "properties": { "id": "2807", "country": "India", "iso3": "IND", "gwno": 750.0, "year": 2002, "geo_id": 7997, "geolocation": "Darjiling", "level": 2, "adm1": "West Bengal", "adm2": "Darjiling", "adm3": null, "location": "Darjeeling", "historical": 0, "hist_country": null, "disastertype": "storm", "disasterno": "2002-0308", "latitude": 26.91364047, "longitude": 88.39335093 }, "geometry": { "type": "Point", "coordinates": [ 88.39335093, 26.91364047 ] } },
{ "type": "Feature", "properties": { "id": "2807", "country": "India", "iso3": "IND", "gwno": 750.0, "year": 2002, "geo_id": 8202, "geolocation": "Jalpaiguri", "level": 2, "adm1": "West Bengal", "adm2": "Jalpaiguri", "adm3": null, "location": "Jalpaiguri", "historical": 0, "hist_country": null, "disastertype": "storm", "disasterno": "2002-0308", "latitude": 26.68693687, "longitude": 88.7647131 }, "geometry": { "type": "Point", "coordinates": [ 88.7647131, 26.68693687 ] } },
{ "type": "Feature", "properties": { "id": "2807", "country": "India", "iso3": "IND", "gwno": 750.0, "year": 2002, "geo_id": 8362, "geolocation": "Kolkata", "level": 2, "adm1": "West Bengal", "adm2": "Kolkata", "adm3": null, "location": "Calcutta", "historical": 0, "hist_country": null, "disastertype": "storm", "disasterno": "2002-0308", "latitude": 22.55199571, "longitude": 88.35157415 }, "geometry": { "type": "Point", "coordinates": [ 88.35157415, 22.55199571 ] } },
{ "type": "Feature", "properties": { "id": "2811", "country": "India", "iso3": "IND", "gwno": 750.0, "year": 2002, "geo_id": 8200, "geolocation": "Jalgaon", "level": 2, "adm1": "Maharashtra", "adm2": "Jalgaon", "adm3": null, "location": "Jalgaon district", "historical": 0, "hist_country": null, "disastertype": "flood", "disasterno": "2002-0568", "latitude": 20.93763583, "longitude": 75.49150547000001 }, "geometry": { "type": "Point", "coordinates": [ 75.49150547, 20.93763583 ] } },
{ "type": "Feature", "properties": { "id": "2811", "country": "India", "iso3": "IND", "gwno": 750.0, "year": 2002, "geo_id": 8539, "geolocation": "Nashik", "level": 2, "adm1": "Maharashtra", "adm2": "Nashik", "adm3": null, "location": "Nasik district", "historical": 0, "hist_country": null, "disastertype": "flood", "disasterno": "2002-0568", "latitude": 20.26020129, "longitude": 74.07947908 }, "geometry": { "type": "Point", "coordinates": [ 74.07947908, 20.26020129 ] } },
{ "type": "Feature", "properties": { "id": "2814", "country": "India", "iso3": "IND", "gwno": 750.0, "year": 2002, "geo_id": 8267, "geolocation": "Kannur", "level": 2, "adm1": "Kerala", "adm2": "Kannur", "adm3": null, "location": "Kannur", "historical": 0, "hist_country": null, "disastertype": "flood", "disasterno": "2002-0650", "latitude": 11.99266954, "longitude": 75.53605911 }, "geometry": { "type": "Point", "coordinates": [ 75.53605911, 11.99266954 ] } },
{ "type": "Feature", "properties": { "id": "2814", "country": "India", "iso3": "IND", "gwno": 750.0, "year": 2002, "geo_id": 8300, "geolocation": "Kasaragod", "level": 2, "adm1": "Kerala", "adm2": "Kasaragod", "adm3": null, "location": "Kasaragod", "historical": 0, "hist_country": null, "disastertype": "flood", "disasterno": "2002-0650", "latitude": 12.46079963, "longitude": 75.15172852000001 }, "geometry": { "type": "Point", "coordinates": [ 75.15172852, 12.46079963 ] } },
{ "type": "Feature", "properties": { "id": "2814", "country": "India", "iso3": "IND", "gwno": 750.0, "year": 2002, "geo_id": 8374, "geolocation": "Kozhikode", "level": 2, "adm1": "Kerala", "adm2": "Kozhikode", "adm3": null, "location": "Kozhikode", "historical": 0, "hist_country": null, "disastertype": "flood", "disasterno": "2002-0650", "latitude": 11.47972527, "longitude": 75.83239926 }, "geometry": { "type": "Point", "coordinates": [ 75.83239926, 11.47972527 ] } },
{ "type": "Feature", "properties": { "id": "2814", "country": "India", "iso3": "IND", "gwno": 750.0, "year": 2002, "geo_id": 8825, "geolocation": "Thiruvananthapuram", "level": 2, "adm1": "Kerala", "adm2": "Thiruvananthapuram", "adm3": null, "location": "Malappuram and Thiruvananthapuram", "historical": 0, "hist_country": null, "disastertype": "flood", "disasterno": "2002-0650", "latitude": 8.606194774, "longitude": 77.00426455 }, "geometry": { "type": "Point", "coordinates": [ 77.00426455, 8.606194774 ] } },
{ "type": "Feature", "properties": { "id": "2819", "country": "India", "iso3": "IND", "gwno": 750.0, "year": 2003, "geo_id": 7851, "geolocation": "Bankura", "level": 2, "adm1": "West Bengal", "adm2": "Bankura", "adm3": null, "location": "Bankura", "historical": 0, "hist_country": null, "disastertype": "storm", "disasterno": "2003-0134", "latitude": 23.13798584, "longitude": 87.12923734 }, "geometry": { "type": "Point", "coordinates": [ 87.12923734, 23.13798584 ] } },
{ "type": "Feature", "properties": { "id": "2819", "country": "India", "iso3": "IND", "gwno": 750.0, "year": 2003, "geo_id": 8133, "geolocation": "Haora", "level": 2, "adm1": "West Bengal", "adm2": "Haora", "adm3": null, "location": "Howrah", "historical": 0, "hist_country": null, "disastertype": "storm", "disasterno": "2003-0134", "latitude": 22.52426472, "longitude": 88.06481783 }, "geometry": { "type": "Point", "coordinates": [ 88.06481783, 22.52426472 ] } },
{ "type": "Feature", "properties": { "id": "2820", "country": "India", "iso3": "IND", "gwno": 750.0, "year": 2003, "geo_id": 8498, "geolocation": "Mekhliganj", "level": 3, "adm1": "West Bengal", "adm2": "Koch Bihar", "adm3": "Mekhliganj", "location": "Mekhliganj", "historical": 0, "hist_country": null, "disastertype": "storm", "disasterno": "2003-0234", "latitude": 26.36581211, "longitude": 88.92397589 }, "geometry": { "type": "Point", "coordinates": [ 88.92397589, 26.36581211 ] } },
{ "type": "Feature", "properties": { "id": "2820", "country": "India", "iso3": "IND", "gwno": 750.0, "year": 2003, "geo_id": 8751, "geolocation": "South 24 Parganas", "level": 2, "adm1": "West Bengal", "adm2": "South 24 Parganas", "adm3": null, "location": "Beltali", "historical": 0, "hist_country": null, "disastertype": "storm", "disasterno": "2003-0234", "latitude": 22.12170362, "longitude": 88.41571495 }, "geometry": { "type": "Point", "coordinates": [ 88.41571495, 22.12170362 ] } },
{ "type": "Feature", "properties": { "id": "2826", "country": "India", "iso3": "IND", "gwno": 750.0, "year": 2003, "geo_id": 7756, "geolocation": "Anugul", "level": 2, "adm1": "Odisha", "adm2": "Anugul", "adm3": null, "location": "Angul", "historical": 0, "hist_country": null, "disastertype": "flood", "disasterno": "2003-0683", "latitude": 20.98189206, "longitude": 84.90308876 }, "geometry": { "type": "Point", "coordinates": [ 84.90308876, 20.98189206 ] } },
{ "type": "Feature", "properties": { "id": "2826", "country": "India", "iso3": "IND", "gwno": 750.0, "year": 2003, "geo_id": 7828, "geolocation": "Balangir", "level": 2, "adm1": "Odisha", "adm2": "Balangir", "adm3": null, "location": "Balangir", "historical": 0, "hist_country": null, "disastertype": "flood", "disasterno": "2003-0683", "latitude": 20.58602305, "longitude": 83.1658041 }, "geometry": { "type": "Point", "coordinates": [ 83.1658041, 20.58602305 ] } },
{ "type": "Feature", "properties": { "id": "2826", "country": "India", "iso3": "IND", "gwno": 750.0, "year": 2003, "geo_id": 7859, "geolocation": "Bargarh", "level": 2, "adm1": "Odisha", "adm2": "Bargarh", "adm3": null, "location": "Baragarh", "historical": 0, "hist_country": null, "disastertype": "flood", "disasterno": "2003-0683", "latitude": 21.21540612, "longitude": 83.34469613 }, "geometry": { "type": "Point", "coordinates": [ 83.34469613, 21.21540612 ] } },
{ "type": "Feature", "properties": { "id": "2826", "country": "India", "iso3": "IND", "gwno": 750.0, "year": 2003, "geo_id": 7986, "geolocation": "Cuttack", "level": 2, "adm1": "Odisha", "adm2": "Cuttack", "adm3": null, "location": "Cuttack", "historical": 0, "hist_country": null, "disastertype": "flood", "disasterno": "2003-0683", "latitude": 20.44239318, "longitude": 85.6982686 }, "geometry": { "type": "Point", "coordinates": [ 85.6982686, 20.44239318 ] } },
{ "type": "Feature", "properties": { "id": "2826", "country": "India", "iso3": "IND", "gwno": 750.0, "year": 2003, "geo_id": 8050, "geolocation": "Gajapati", "level": 2, "adm1": "Odisha", "adm2": "Gajapati", "adm3": null, "location": "Gajapati", "historical": 0, "hist_country": null, "disastertype": "flood", "disasterno": "2003-0683", "latitude": 19.16537012, "longitude": 84.1542009 }, "geometry": { "type": "Point", "coordinates": [ 84.1542009, 19.16537012 ] } },
{ "type": "Feature", "properties": { "id": "2826", "country": "India", "iso3": "IND", "gwno": 750.0, "year": 2003, "geo_id": 8059, "geolocation": "Ganjam", "level": 2, "adm1": "Odisha", "adm2": "Ganjam", "adm3": null, "location": "Ganjam", "historical": 0, "hist_country": null, "disastertype": "flood", "disasterno": "2003-0683", "latitude": 19.62190014, "longitude": 84.65996467 }, "geometry": { "type": "Point", "coordinates": [ 84.65996467, 19.62190014 ] } },
{ "type": "Feature", "properties": { "id": "2826", "country": "India", "iso3": "IND", "gwno": 750.0, "year": 2003, "geo_id": 8184, "geolocation": "Jagatsinghapur", "level": 2, "adm1": "Odisha", "adm2": "Jagatsinghapur", "adm3": null, "location": "Jagatsinghpur", "historical": 0, "hist_country": null, "disastertype": "flood", "disasterno": "2003-0683", "latitude": 20.21756098, "longitude": 86.32964206 }, "geometry": { "type": "Point", "coordinates": [ 86.32964206, 20.21756098 ] } },
{ "type": "Feature", "properties": { "id": "2826", "country": "India", "iso3": "IND", "gwno": 750.0, "year": 2003, "geo_id": 8195, "geolocation": "Jajapur", "level": 2, "adm1": "Odisha", "adm2": "Jajapur", "adm3": null, "location": "Jajpur", "historical": 0, "hist_country": null, "disastertype": "flood", "disasterno": "2003-0683", "latitude": 20.8497324, "longitude": 86.14624701 }, "geometry": { "type": "Point", "coordinates": [ 86.14624701, 20.8497324 ] } },
{ "type": "Feature", "properties": { "id": "2826", "country": "India", "iso3": "IND", "gwno": 750.0, "year": 2003, "geo_id": 8253, "geolocation": "Kalahandi", "level": 2, "adm1": "Odisha", "adm2": "Kalahandi", "adm3": null, "location": "Kalahandi", "historical": 0, "hist_country": null, "disastertype": "flood", "disasterno": "2003-0683", "latitude": 19.86281434, "longitude": 83.10201833000001 }, "geometry": { "type": "Point", "coordinates": [ 83.10201833, 19.86281434 ] } },
{ "type": "Feature", "properties": { "id": "2826", "country": "India", "iso3": "IND", "gwno": 750.0, "year": 2003, "geo_id": 8307, "geolocation": "Kendrapara", "level": 2, "adm1": "Odisha", "adm2": "Kendrapara", "adm3": null, "location": "Kendrapara", "historical": 0, "hist_country": null, "disastertype": "flood", "disasterno": "2003-0683", "latitude": 20.54637395, "longitude": 86.60225642 }, "geometry": { "type": "Point", "coordinates": [ 86.60225642, 20.54637395 ] } },
{ "type": "Feature", "properties": { "id": "2826", "country": "India", "iso3": "IND", "gwno": 750.0, "year": 2003, "geo_id": 8371, "geolocation": "Koraput", "level": 2, "adm1": "Odisha", "adm2": "Koraput", "adm3": null, "location": "Koraput", "historical": 0, "hist_country": null, "disastertype": "flood", "disasterno": "2003-0683", "latitude": 18.8106927, "longitude": 82.70710115 }, "geometry": { "type": "Point", "coordinates": [ 82.70710115, 18.8106927 ] } },
{ "type": "Feature", "properties": { "id": "2826", "country": "India", "iso3": "IND", "gwno": 750.0, "year": 2003, "geo_id": 8546, "geolocation": "Nayagarh", "level": 2, "adm1": "Odisha", "adm2": "Nayagarh", "adm3": null, "location": "Nayagarh", "historical": 0, "hist_country": null, "disastertype": "flood", "disasterno": "2003-0683", "latitude": 20.20652947, "longitude": 84.99328054 }, "geometry": { "type": "Point", "coordinates": [ 84.99328054, 20.20652947 ] } },
{ "type": "Feature", "properties": { "id": "2826", "country": "India", "iso3": "IND", "gwno": 750.0, "year": 2003, "geo_id": 8702, "geolocation": "Rayagada", "level": 2, "adm1": "Odisha", "adm2": "Rayagada", "adm3": null, "location": "Rayagada", "historical": 0, "hist_country": null, "disastertype": "flood", "disasterno": "2003-0683", "latitude": 19.35435158, "longitude": 83.5064816 }, "geometry": { "type": "Point", "coordinates": [ 83.5064816, 19.35435158 ] } },
{ "type": "Feature", "properties": { "id": "2826", "country": "India", "iso3": "IND", "gwno": 750.0, "year": 2003, "geo_id": 8762, "geolocation": "Subarnapur", "level": 2, "adm1": "Odisha", "adm2": "Subarnapur", "adm3": null, "location": "Sonepur", "historical": 0, "hist_country": null, "disastertype": "flood", "disasterno": "2003-0683", "latitude": 20.92629488, "longitude": 83.81829967 }, "geometry": { "type": "Point", "coordinates": [ 83.81829967, 20.92629488 ] } },
{ "type": "Feature", "properties": { "id": "2828", "country": "India", "iso3": "IND", "gwno": 750.0, "year": 2003, "geo_id": 8124, "geolocation": "Guntur", "level": 2, "adm1": "Andhra Pradesh", "adm2": "Guntur", "adm3": null, "location": "Guntur", "historical": 0, "hist_country": null, "disastertype": "storm", "disasterno": "2003-0605", "latitude": 16.29023485, "longitude": 80.08194333 }, "geometry": { "type": "Point", "coordinates": [ 80.08194333, 16.29023485 ] } },
{ "type": "Feature", "properties": { "id": "2828", "country": "India", "iso3": "IND", "gwno": 750.0, "year": 2003, "geo_id": 8380, "geolocation": "Krishna", "level": 2, "adm1": "Andhra Pradesh", "adm2": "Krishna", "adm3": null, "location": "Krishna", "historical": 0, "hist_country": null, "disastertype": "storm", "disasterno": "2003-0605", "latitude": 16.55006848, "longitude": 80.79256277 }, "geometry": { "type": "Point", "coordinates": [ 80.79256277, 16.55006848 ] } },
{ "type": "Feature", "properties": { "id": "2828", "country": "India", "iso3": "IND", "gwno": 750.0, "year": 2003, "geo_id": 9008, "geolocation": "West Godavari", "level": 2, "adm1": "Andhra Pradesh", "adm2": "West Godavari", "adm3": null, "location": "West Godavari", "historical": 0, "hist_country": null, "disastertype": "storm", "disasterno": "2003-0605", "latitude": 16.88638554, "longitude": 81.39289921 }, "geometry": { "type": "Point", "coordinates": [ 81.39289921, 16.88638554 ] } },
{ "type": "Feature", "properties": { "id": "2829", "country": "India", "iso3": "IND", "gwno": 750.0, "year": 2004, "geo_id": 7938, "geolocation": "Bishnupur", "level": 2, "adm1": "Manipur", "adm2": "Bishnupur", "adm3": null, "location": "Oinam", "historical": 0, "hist_country": null, "disastertype": "flood", "disasterno": "2004-0178", "latitude": 24.54474961, "longitude": 93.80183996 }, "geometry": { "type": "Point", "coordinates": [ 93.80183996, 24.54474961 ] } },
{ "type": "Feature", "properties": { "id": "2829", "country": "India", "iso3": "IND", "gwno": 750.0, "year": 2004, "geo_id": 8177, "geolocation": "Imphal East", "level": 2, "adm1": "Manipur", "adm2": "Imphal East", "adm3": null, "location": "Sanjenbam", "historical": 0, "hist_country": null, "disastertype": "flood", "disasterno": "2004-0178", "latitude": 24.80750672, "longitude": 93.77595163 }, "geometry": { "type": "Point", "coordinates": [ 93.77595163, 24.80750672 ] } },
{ "type": "Feature", "properties": { "id": "2829", "country": "India", "iso3": "IND", "gwno": 750.0, "year": 2004, "geo_id": 8178, "geolocation": "Imphal West", "level": 2, "adm1": "Manipur", "adm2": "Imphal West", "adm3": null, "location": "Lourembam", "historical": 0, "hist_country": null, "disastertype": "flood", "disasterno": "2004-0178", "latitude": 24.80698897, "longitude": 93.87822529 }, "geometry": { "type": "Point", "coordinates": [ 93.87822529, 24.80698897 ] } },
{ "type": "Feature", "properties": { "id": "2830", "country": "India", "iso3": "IND", "gwno": 750.0, "year": 2004, "geo_id": 8268, "geolocation": "Kannur", "level": 2, "adm1": "Kerala", "adm2": "Kannur", "adm3": null, "location": "Kannur", "historical": 0, "hist_country": null, "disastertype": "flood", "disasterno": "2004-0321", "latitude": 11.99266954, "longitude": 75.53605911 }, "geometry": { "type": "Point", "coordinates": [ 75.53605911, 11.99266954 ] } },
{ "type": "Feature", "properties": { "id": "2830", "country": "India", "iso3": "IND", "gwno": 750.0, "year": 2004, "geo_id": 8301, "geolocation": "Kasaragod", "level": 2, "adm1": "Kerala", "adm2": "Kasaragod", "adm3": null, "location": "Kasargode", "historical": 0, "hist_country": null, "disastertype": "flood", "disasterno": "2004-0321", "latitude": 12.46079963, "longitude": 75.15172852000001 }, "geometry": { "type": "Point", "coordinates": [ 75.15172852, 12.46079963 ] } },
{ "type": "Feature", "properties": { "id": "2830", "country": "India", "iso3": "IND", "gwno": 750.0, "year": 2004, "geo_id": 8375, "geolocation": "Kozhikode", "level": 2, "adm1": "Kerala", "adm2": "Kozhikode", "adm3": null, "location": "Calicut", "historical": 0, "hist_country": null, "disastertype": "flood", "disasterno": "2004-0321", "latitude": 11.47972527, "longitude": 75.83239926 }, "geometry": { "type": "Point", "coordinates": [ 75.83239926, 11.47972527 ] } },
{ "type": "Feature", "properties": { "id": "2831", "country": "India", "iso3": "IND", "gwno": 750.0, "year": 2004, "geo_id": 7849, "geolocation": "Banka", "level": 2, "adm1": "Bihar", "adm2": "Banka", "adm3": null, "location": "Banka", "historical": 0, "hist_country": null, "disastertype": "flood", "disasterno": "2004-0298", "latitude": 24.85181222, "longitude": 86.83365055 }, "geometry": { "type": "Point", "coordinates": [ 86.83365055, 24.85181222 ] } },
{ "type": "Feature", "properties": { "id": "2831", "country": "India", "iso3": "IND", "gwno": 750.0, "year": 2004, "geo_id": 7879, "geolocation": "Bhagalpur", "level": 2, "adm1": "Bihar", "adm2": "Bhagalpur", "adm3": null, "location": "Bhagalpur", "historical": 0, "hist_country": null, "disastertype": "flood", "disasterno": "2004-0298", "latitude": 25.26889636, "longitude": 87.07777418000001 }, "geometry": { "type": "Point", "coordinates": [ 87.07777418, 25.26889636 ] } },
{ "type": "Feature", "properties": { "id": "2831", "country": "India", "iso3": "IND", "gwno": 750.0, "year": 2004, "geo_id": 7994, "geolocation": "Darbhanga", "level": 2, "adm1": "Bihar", "adm2": "Darbhanga", "adm3": null, "location": "Darbhanga", "historical": 0, "hist_country": null, "disastertype": "flood", "disasterno": "2004-0298", "latitude": 26.11540047, "longitude": 86.01625194 }, "geometry": { "type": "Point", "coordinates": [ 86.01625194, 26.11540047 ] } },
{ "type": "Feature", "properties": { "id": "2831", "country": "India", "iso3": "IND", "gwno": 750.0, "year": 2004, "geo_id": 8000, "geolocation": "Darrang", "level": 2, "adm1": "Assam", "adm2": "Darrang", "adm3": null, "location": "Darrang", "historical": 0, "hist_country": null, "disastertype": "flood", "disasterno": "2004-0298", "latitude": 26.44847938, "longitude": 92.03596836 }, "geometry": { "type": "Point", "coordinates": [ 92.03596836, 26.44847938 ] } },
{ "type": "Feature", "properties": { "id": "2831", "country": "India", "iso3": "IND", "gwno": 750.0, "year": 2004, "geo_id": 8019, "geolocation": "Dhemaji", "level": 2, "adm1": "Assam", "adm2": "Dhemaji", "adm3": null, "location": "Dhemaji", "historical": 0, "hist_country": null, "disastertype": "flood", "disasterno": "2004-0298", "latitude": 27.58774856, "longitude": 94.77483408000001 }, "geometry": { "type": "Point", "coordinates": [ 94.77483408, 27.58774856 ] } },
{ "type": "Feature", "properties": { "id": "2831", "country": "India", "iso3": "IND", "gwno": 750.0, "year": 2004, "geo_id": 8255, "geolocation": "Kamrup", "level": 2, "adm1": "Assam", "adm2": "Kamrup", "adm3": null, "location": "Kamrup", "historical": 0, "hist_country": null, "disastertype": "flood", "disasterno": "2004-0298", "latitude": 26.10199199, "longitude": 91.42628315 }, "geometry": { "type": "Point", "coordinates": [ 91.42628315, 26.10199199 ] } },
{ "type": "Feature", "properties": { "id": "2831", "country": "India", "iso3": "IND", "gwno": 750.0, "year": 2004, "geo_id": 8399, "geolocation": "Lakhimpur", "level": 2, "adm1": "Assam", "adm2": "Lakhimpur", "adm3": null, "location": "Lakhimpur", "historical": 0, "hist_country": null, "disastertype": "flood", "disasterno": "2004-0298", "latitude": 27.17536039, "longitude": 94.13589219000001 }, "geometry": { "type": "Point", "coordinates": [ 94.13589219, 27.17536039 ] } },
{ "type": "Feature", "properties": { "id": "2831", "country": "India", "iso3": "IND", "gwno": 750.0, "year": 2004, "geo_id": 8415, "geolocation": "Madhubani", "level": 2, "adm1": "Bihar", "adm2": "Madhubani", "adm3": null, "location": "Madhubani", "historical": 0, "hist_country": null, "disastertype": "flood", "disasterno": "2004-0298", "latitude": 26.40674188, "longitude": 86.21186545 }, "geometry": { "type": "Point", "coordinates": [ 86.21186545, 26.40674188 ] } },
{ "type": "Feature", "properties": { "id": "2831", "country": "India", "iso3": "IND", "gwno": 750.0, "year": 2004, "geo_id": 8510, "geolocation": "Muzaffarpur", "level": 2, "adm1": "Bihar", "adm2": "Muzaffarpur", "adm3": null, "location": "Muzzaffarpur", "historical": 0, "hist_country": null, "disastertype": "flood", "disasterno": "2004-0298", "latitude": 26.15305405, "longitude": 85.32182327 }, "geometry": { "type": "Point", "coordinates": [ 85.32182327, 26.15305405 ] } },
{ "type": "Feature", "properties": { "id": "2831", "country": "India", "iso3": "IND", "gwno": 750.0, "year": 2004, "geo_id": 8527, "geolocation": "Nalbari", "level": 2, "adm1": "Assam", "adm2": "Nalbari", "adm3": null, "location": "Nalbri", "historical": 0, "hist_country": null, "disastertype": "flood", "disasterno": "2004-0298", "latitude": 26.37721495, "longitude": 91.38373673 }, "geometry": { "type": "Point", "coordinates": [ 91.38373673, 26.37721495 ] } },
{ "type": "Feature", "properties": { "id": "2831", "country": "India", "iso3": "IND", "gwno": 750.0, "year": 2004, "geo_id": 8728, "geolocation": "Sheohar", "level": 2, "adm1": "Bihar", "adm2": "Sheohar", "adm3": null, "location": "Sheohar", "historical": 0, "hist_country": null, "disastertype": "flood", "disasterno": "2004-0298", "latitude": 26.4848894, "longitude": 85.32378785 }, "geometry": { "type": "Point", "coordinates": [ 85.32378785, 26.4848894 ] } },
{ "type": "Feature", "properties": { "id": "2831", "country": "India", "iso3": "IND", "gwno": 750.0, "year": 2004, "geo_id": 8739, "geolocation": "Sitamarhi", "level": 2, "adm1": "Bihar", "adm2": "Sitamarhi", "adm3": null, "location": "Sitamarhi", "historical": 0, "hist_country": null, "disastertype": "flood", "disasterno": "2004-0298", "latitude": 26.59651346, "longitude": 85.55755515 }, "geometry": { "type": "Point", "coordinates": [ 85.55755515, 26.59651346 ] } },
{ "type": "Feature", "properties": { "id": "2831", "country": "India", "iso3": "IND", "gwno": 750.0, "year": 2004, "geo_id": 8747, "geolocation": "Sonitpur", "level": 2, "adm1": "Assam", "adm2": "Sonitpur", "adm3": null, "location": "Sonitpur", "historical": 0, "hist_country": null, "disastertype": "flood", "disasterno": "2004-0298", "latitude": 26.78157942, "longitude": 92.92678872 }, "geometry": { "type": "Point", "coordinates": [ 92.92678872, 26.78157942 ] } },
{ "type": "Feature", "properties": { "id": "2835", "country": "India", "iso3": "IND", "gwno": 750.0, "year": 2004, "geo_id": 7676, "geolocation": "Alappuzha", "level": 2, "adm1": "Kerala", "adm2": "Alappuzha", "adm3": null, "location": "Alappuzha", "historical": 0, "hist_country": null, "disastertype": "earthquake", "disasterno": "2004-0659", "latitude": 9.413009259000001, "longitude": 76.44657618 }, "geometry": { "type": "Point", "coordinates": [ 76.44657618, 9.413009259 ] } },
{ "type": "Feature", "properties": { "id": "2835", "country": "India", "iso3": "IND", "gwno": 750.0, "year": 2004, "geo_id": 7958, "geolocation": "Chennai", "level": 2, "adm1": "Tamil Nadu", "adm2": "Chennai", "adm3": null, "location": "Chennai", "historical": 0, "hist_country": null, "disastertype": "earthquake", "disasterno": "2004-0659", "latitude": 13.04849576, "longitude": 80.23437074 }, "geometry": { "type": "Point", "coordinates": [ 80.23437074, 13.04849576 ] } },
{ "type": "Feature", "properties": { "id": "2835", "country": "India", "iso3": "IND", "gwno": 750.0, "year": 2004, "geo_id": 7977, "geolocation": "Cuddalore", "level": 2, "adm1": "Tamil Nadu", "adm2": "Cuddalore", "adm3": null, "location": "Cuddalore", "historical": 0, "hist_country": null, "disastertype": "earthquake", "disasterno": "2004-0659", "latitude": 11.52490531, "longitude": 79.44715025000001 }, "geometry": { "type": "Point", "coordinates": [ 79.44715025, 11.52490531 ] } },
{ "type": "Feature", "properties": { "id": "2835", "country": "India", "iso3": "IND", "gwno": 750.0, "year": 2004, "geo_id": 8039, "geolocation": "East Godavari", "level": 2, "adm1": "Andhra Pradesh", "adm2": "East Godavari", "adm3": null, "location": "East Godavari", "historical": 0, "hist_country": null, "disastertype": "earthquake", "disasterno": "2004-0659", "latitude": 17.18512821, "longitude": 82.00214406000001 }, "geometry": { "type": "Point", "coordinates": [ 82.00214406, 17.18512821 ] } },
{ "type": "Feature", "properties": { "id": "2835", "country": "India", "iso3": "IND", "gwno": 750.0, "year": 2004, "geo_id": 8125, "geolocation": "Guntur", "level": 2, "adm1": "Andhra Pradesh", "adm2": "Guntur", "adm3": null, "location": "Guntur", "historical": 0, "hist_country": null, "disastertype": "earthquake", "disasterno": "2004-0659", "latitude": 16.29023485, "longitude": 80.08194333 }, "geometry": { "type": "Point", "coordinates": [ 80.08194333, 16.29023485 ] } },
{ "type": "Feature", "properties": { "id": "2835", "country": "India", "iso3": "IND", "gwno": 750.0, "year": 2004, "geo_id": 8260, "geolocation": "Kancheepuram", "level": 2, "adm1": "Tamil Nadu", "adm2": "Kancheepuram", "adm3": null, "location": "Kancheepuram", "historical": 0, "hist_country": null, "disastertype": "earthquake", "disasterno": "2004-0659", "latitude": 12.68074493, "longitude": 79.93525454 }, "geometry": { "type": "Point", "coordinates": [ 79.93525454, 12.68074493 ] } },
{ "type": "Feature", "properties": { "id": "2835", "country": "India", "iso3": "IND", "gwno": 750.0, "year": 2004, "geo_id": 8264, "geolocation": "Kanniyakumari", "level": 2, "adm1": "Tamil Nadu", "adm2": "Kanniyakumari", "adm3": null, "location": "Kanniyakumari", "historical": 0, "hist_country": null, "disastertype": "earthquake", "disasterno": "2004-0659", "latitude": 8.304640347, "longitude": 77.3456335 }, "geometry": { "type": "Point", "coordinates": [ 77.3456335, 8.304640347 ] } },
{ "type": "Feature", "properties": { "id": "2835", "country": "India", "iso3": "IND", "gwno": 750.0, "year": 2004, "geo_id": 8368, "geolocation": "Kollam", "level": 2, "adm1": "Kerala", "adm2": "Kollam", "adm3": null, "location": "Kollam", "historical": 0, "hist_country": null, "disastertype": "earthquake", "disasterno": "2004-0659", "latitude": 8.954796002, "longitude": 76.86795887 }, "geometry": { "type": "Point", "coordinates": [ 76.86795887, 8.954796002 ] } },
{ "type": "Feature", "properties": { "id": "2835", "country": "India", "iso3": "IND", "gwno": 750.0, "year": 2004, "geo_id": 8381, "geolocation": "Krishna", "level": 2, "adm1": "Andhra Pradesh", "adm2": "Krishna", "adm3": null, "location": "Krishna", "historical": 0, "hist_country": null, "disastertype": "earthquake", "disasterno": "2004-0659", "latitude": 16.55006848, "longitude": 80.79256277 }, "geometry": { "type": "Point", "coordinates": [ 80.79256277, 16.55006848 ] } },
{ "type": "Feature", "properties": { "id": "2835", "country": "India", "iso3": "IND", "gwno": 750.0, "year": 2004, "geo_id": 8520, "geolocation": "Nagappattinam", "level": 2, "adm1": "Tamil Nadu", "adm2": "Nagappattinam", "adm3": null, "location": "Nagapattinam", "historical": 0, "hist_country": null, "disastertype": "earthquake", "disasterno": "2004-0659", "latitude": 10.86120155, "longitude": 79.73576795 }, "geometry": { "type": "Point", "coordinates": [ 79.73576795, 10.86120155 ] } },
{ "type": "Feature", "properties": { "id": "2835", "country": "India", "iso3": "IND", "gwno": 750.0, "year": 2004, "geo_id": 8551, "geolocation": "Nellore", "level": 2, "adm1": "Andhra Pradesh", "adm2": "Nellore", "adm3": null, "location": "Nellore", "historical": 0, "hist_country": null, "disastertype": "earthquake", "disasterno": "2004-0659", "latitude": 14.43556427, "longitude": 79.72017697 },